"CODE","NAME","POSTCODE","NUMBER_OF_PRACTITIONERS","NUMBER_OF_PATIENTS","latitude","longitude"
"A84002","THE ROTHBURY PRACTICE","NE65 7UW",12,5988,55.309091,-1.91181
"A84005","BEDLINGTONSHIRE MED.GROUP","NE22 6JX",17,12170,55.1322,-1.598682
"A84006","ALNWICK MEDICAL GROUP","NE66 2NL",21,18873,55.410077,-1.6967
"A84007","PONTELAND MEDICAL GROUP","NE20 9SD",21,10530,55.051757,-1.750046
"A84008","BELFORD MEDICAL PRACTICE","NE70 7ER",10,4477,55.595957,-1.826104
"A84009","RAILWAY MEDICAL GROUP","NE24 1HD",45,26641,55.128814,-1.514234
"A84011","WHITE MEDICAL GROUP","NE20 9SD",14,8060,55.051757,-1.750046
"A84013","THE GABLES MEDICAL GROUP","NE22 7DU",19,6232,55.140811,-1.564429
"A84014","MARINE MEDICAL GROUP","NE24 1DX",19,12725,55.127873,-1.514936
"A84016","PRUDHOE MEDICAL GROUP","NE42 5PW",15,6932,54.961947,-1.853348
"A84018","CORBRIDGE HEALTH CENTRE","NE45 5LG",13,7007,54.973862,-2.012702
"A84020","GUIDEPOST MEDICAL GROUP","NE62 5RA",20,8051,55.157579,-1.604109
"A84022","COQUET MEDICAL GROUP","NE65 0HD",19,11959,55.332599,-1.580504
"A84024","BURN BRAE MEDICAL GROUP","NE46 1QJ",15,10045,54.970372,-2.095812
"A84025","CRAMLINGTON MEDICAL GROUP","NE23 6QN",17,4989,55.084481,-1.591516
"A84027","BELLINGHAM PRACTICE","NE48 2HE",8,3417,55.14384,-2.257998
"A84028","SEATON PARK MEDICAL GROUP","NE63 0NG",30,18925,55.171195,-1.561193
"A84029","NORTHUMBERLAND HEALTH","NE61 5LX",8,2706,55.240248,-1.62051
"A84030","VILLAGE MEDICAL GROUP","NE23 6US",21,9736,55.084727,-1.58708
"A84031","GREYSTOKE SURGERY","NE61 1JX",15,10104,55.171694,-1.683424
"A84032","CHEVIOT MEDICAL GROUP","NE71 6BL",4,2372,55.546525,-2.01842
"A84033","THE SELE MEDICAL PRACTICE","NE46 1QJ",10,5893,54.970372,-2.095812
"A84034","HALTWHISTLE MEDICAL GROUP","NE49 9AP",14,5589,54.970071,-2.46484
"A84035","RIVERSDALE SURGERY","NE42 5DQ",13,6073,54.961364,-1.845609
"A84036","VALENS MEDICAL PARTNERSHIP","NE61 1BJ",61,51871,55.169477,-1.689718
"A84037","NETHERFIELD HOUSE","NE23 7EF",9,6026,55.063632,-1.548435
"A84038","FORUM FAMILY PRACTICE","NE23 6QN",8,6932,55.084481,-1.591516
"A84039","GAS HOUSE LANE SURGERY","NE61 1JX",12,5976,55.171694,-1.683424
"A84040","HUMSHAUGH & WARK MED GRP","NE46 4BU",11,3665,55.036036,-2.125343
"A84042","SCOTS GAP MEDICAL GROUP","NE61 4EG",6,2131,55.172746,-1.940563
"A84045","HAYDON BRIDGE & ALLENDALE MEDICAL PRACT","NE47 6LA",13,5409,54.975681,-2.250059
"A84047","BRANCH END SURGERY","NE43 7LL",9,5400,54.947131,-1.897791
"A84604","WOOLER HEALTH","NE71 6BL",11,2291,55.546525,-2.01842
"A84609","FELTON SURGERY","NE65 9PR",9,1730,55.298652,-1.7113
"A84614","THE ADDERLANE SURGERY","NE42 5HR",3,1957,54.962605,-1.845745
"A84619","ELSDON AVENUE SURGERY","NE25 0BW",6,3932,55.07062,-1.525885
"A88001","VICTORIA MEDICAL CENTRE","NE31 1NU",5,3573,54.97392,-1.521757
"A88002","FARNHAM MEDICAL CTR.","NE33 4QY",16,17281,54.975577,-1.438064
"A88003","MARSDEN MEDICAL GROUP","NE34 6RE",30,14145,54.980464,-1.400136
"A88004","MAYFIELD MEDICAL GROUP","NE32 5SE",11,9269,54.977881,-1.496449
"A88005","WENLOCK ROAD SURGERY","NE34 9BP",4,4497,54.972635,-1.455226
"A88006","TALBOT MEDICAL CENTRE","NE34 0BX",11,7895,54.972932,-1.441738
"A88007","WAWN STREET SURGERY","NE33 4DX",11,7813,54.987233,-1.426712
"A88008","TRINITY MEDICAL CENTRE","NE33 5DU",10,6491,54.987693,-1.436785
"A88009","DR THORNILEY-WALKER & PARTNERS","NE35 9AN",8,6389,54.949762,-1.460703
"A88010","ALBERT ROAD SURGERY","NE32 5AG",8,2999,54.978067,-1.491494
"A88012","ELLISON VIEW SURGERY","NE31 2SP",11,6426,54.973433,-1.507378
"A88013","CENTRAL SURGERY","NE34 8PS",23,19508,54.971291,-1.415301
"A88014","WEST VIEW SURGERY","NE33 4JP",5,2797,54.984988,-1.431179
"A88015","ST GEORGE & RIVERSIDE MEDICAL PRACTICE","NE33 5DU",11,6907,54.987693,-1.436785
"A88016","COLLIERY COURT MEDICAL GROUP","NE35 9AN",12,8109,54.949762,-1.460703
"A88022","THE GLEN MEDICAL GROUP","NE31 1NU",12,10646,54.97392,-1.521757
"A88023","WHITBURN SURGERY","SR6 7EE",6,5320,54.952795,-1.364667
"A88025","THE G.P.SUITE","NE32 3UX",5,4773,54.980657,-1.491977
"A88601","IMEARY MEDICAL GROUP","NE33 4EG",3,3900,54.98753,-1.424863
"A88608","RAVENSWORTH SURGERY","NE33 3ET",6,5892,54.988381,-1.420585
"A88613","EAST WING PRACTICE","NE32 3UX",7,4083,54.980657,-1.491977
"A89001","DEERNESS PARK MEDICAL GROUP","SR2 8AD",28,13422,54.899942,-1.37275
"A89002","RIVERVIEW SURGERY","SR1 2HJ",6,6582,54.905516,-1.37324
"A89004","HETTON GROUP PRACTICE","DH5 9EZ",22,11588,54.825347,-1.449116
"A89005","VILLETTE SURGERY","SR2 8AX",5,5513,54.897475,-1.368436
"A89006","WEARSIDE MEDICAL PRACTICE - PALLION","SR4 7XF",9,7748,54.908604,-1.414195
"A89007","PALLION FAMILY PRACTICE","SR4 7XF",12,10263,54.908604,-1.414195
"A89008","RED HOUSE MEDICAL CENTRE","SR5 5PS",9,5197,54.925457,-1.424063
"A89009","HERRINGTON MEDICAL CENTRE","DH4 4LE",14,9069,54.865685,-1.483326
"A89010","THE STEPHENSON MEDICAL PRACTICE","NE37 2PU",20,12461,54.913411,-1.524864
"A89011","VILLAGE SURGERY PARTNERSHIP","SR3 2AN",12,4457,54.870954,-1.407217
"A89012","GALLERIES MEDICAL PRACTICE","NE38 7NQ",16,10909,54.898814,-1.531242
"A89013","THE NEW CITY MEDICAL GROUP","SR1 2QB",12,5056,54.904428,-1.376595
"A89015","FULWELL MEDICAL CENTRE,","SR6 8DZ",17,9172,54.930486,-1.383012
"A89016","ST BEDE MEDICAL CENTRE","SR6 0QQ",9,8845,54.913836,-1.378165
"A89017","MILLFIELD MEDICAL GROUP","SR4 7AF",16,13831,54.906923,-1.395769
"A89018","ASHBURN MEDICAL CENTRE","SR2 8JG",11,5039,54.895168,-1.374025
"A89019","BRIDGE VIEW MEDICAL GROUP","SR5 2LT",20,14909,54.919455,-1.401824
"A89020","FORGE MEDICAL PRACTICE","SR4 6QE",16,9509,54.910063,-1.412694
"A89021","KEPIER MEDICAL PRACTICE","DH4 5EQ",15,8288,54.845032,-1.47876
"A89022","CONCORD MEDICAL PRACTICE","NE37 2PU",9,5270,54.913411,-1.524864
"A89023","HOUGHTON MEDICAL GROUP,","DH4 4DN",10,7910,54.842322,-1.469175
"A89024","THE BROADWAY MEDICAL PRACTICE","SR3 4HG",11,6153,54.890239,-1.422181
"A89025","SUNDERLAND GP ALLIANCE MEDICAL PRACTICE","NE38 7NQ",21,12351,54.898814,-1.531242
"A89026","NEW WASHINGTON MEDICAL GROUP","NE37 2PU",8,7467,54.913411,-1.524864
"A89027","SPRINGWELL MEDICAL GROUP","SR3 4HG",15,6353,54.890239,-1.422181
"A89028","GRANGEWOOD SURGERY","DH4 4RB",10,7180,54.866414,-1.498711
"A89030","WESTBOURNE MEDICAL GROUP","DH4 4RW",11,6338,54.866868,-1.495464
"A89031","HYLTON MEDICAL GROUP","SR4 7XF",14,5172,54.908604,-1.414195
"A89032","NEW SILKSWORTH MEDICAL PRACTICE","SR3 2AN",17,9874,54.870954,-1.407217
"A89034","PARK LANE PRACTICE","SR2 7BA",3,3964,54.901305,-1.384378
"A89035","SOUTHLANDS MEDICAL GROUP","SR2 0RX",6,8713,54.871306,-1.368471
"A89036","CASTLETOWN MEDICAL CENTRE","SR5 3EX",6,2224,54.913341,-1.450848
"A89040","MONKWEARMOUTH HEALTH CENTRE","SR6 0AB",5,4647,54.913135,-1.381655
"A89041","HAPPY HOUSE SURGERY","SR3 4BY",10,7073,54.885012,-1.422785
"A89614","SUNDERLAND GP ALLIANCE SOUTH HYLTON SURG","SR4 0LS",10,4102,54.904224,-1.449615
"A89616","RICKLETON MEDICAL CENTRE","NE38 9EH",4,2284,54.880193,-1.547496
"A89617","I J HEALTHCARE","NE38 9AB",8,4013,54.88104,-1.531354
"A89623","CHESTER SURGERY","SR4 7TU",4,2738,54.901075,-1.406774
"Y01262","PALLION PRIMARY CARE SERVICES","SR4 7XF",8,23,54.908604,-1.414195
"P81005","LITTLE HARWOOD HEALTH CENTRE","BB1 6PH",13,11816,53.758668,-2.467263
"P81022","WITTON MEDICAL CENTRE","BB2 2SU",11,10523,53.740232,-2.507553
"P81051","DARWEN HEALTHCARE","BB3 1PY",22,12991,53.695744,-2.471427
"P81058","ST GEORGES SURGERY","BB2 3HS",13,9584,53.738511,-2.475711
"P81061","REDLAM SURGERY","BB2 1UW",6,4593,53.742584,-2.503837
"P81125","OAKENHURST MEDICAL PRACTICE","BB2 1AX",9,10100,53.750552,-2.486748
"P81140","DARWEN HEALTHLINK","BB3 1PY",11,15935,53.695744,-2.471427
"P81155","BROWNHILL SURGERY","BB1 9BA",2,5245,53.775276,-2.479328
"P81167","STEPPING STONE PRACTICE","BB1 1XA",3,5625,53.747582,-2.456646
"P81214","LIMEFIELD SURGERY","BB2 6PL",3,4205,53.749882,-2.503894
"P81622","SHIFA SURGERY","BB1 6DY",7,10848,53.757295,-2.475999
"P81633","SPRING-FENISCO HEALTHLINK","BB3 1BZ",5,3254,53.691098,-2.46668
"P81683","OLIVE MEDICAL CENTRE","BB1 7EP",9,7549,53.752309,-2.484193
"P81694","FAMILY PRACTICE","BB2 1AX",6,5266,53.750552,-2.486748
"P81704","BLAKEWATER HEALTHCARE","BB1 9SR",9,11286,53.76497,-2.473916
"P81707","WILLIAM HOPWOOD STREET SURGERY","BB1 1LX",8,5453,53.746299,-2.467033
"P81709","ROMAN ROAD HEALTH CENTRE","BB2 3UY",6,4948,53.728431,-2.472202
"P81721","HOLLINS GROVE SURGERY","BB3 1ET",2,2579,53.705346,-2.477472
"P81724","PRINGLE STREET SURGERY","BB1 1SB",4,2389,53.742039,-2.467594
"P81734","THE CORNERSTONE PRACTICE","BB1 2HR",17,19186,53.739837,-2.452861
"P81771","PRIMROSE BANK MEDICAL CENTRE","BB1 5ER",8,9664,53.752542,-2.475521
"Y02657","BENTHAM ROAD HEALTH CENTRE","BB2 4QD",11,7789,53.730584,-2.50627
"P81004","ELIZABETH STREET SURGERY","FY1 3JG",4,1643,53.820839,-3.043658
"P81016","WATERLOO MEDICAL CENTRE","FY4 3AD",13,12249,53.799804,-3.041431
"P81042","ADELAIDE STREET SURGERY","FY1 4LN",13,13268,53.817351,-3.048397
"P81043","SOUTH KING STREET MEDICAL CENTRE","FY1 4NF",6,6009,53.816775,-3.047855
"P81054","MARTON MEDICAL PRACTICE","FY3 9ES",5,9446,53.812843,-3.034524
"P81063","ST PAULS MEDICAL CENTRE","FY1 2HH",14,11631,53.828701,-3.053197
"P81066","LAYTON MEDICAL CENTRE","FY3 7EN",9,7815,53.827425,-3.027291
"P81072","GLENROYD MEDICAL CENTRE","FY2 0JG",15,14486,53.849555,-3.033503
"P81073","CLEVELEYS GROUP PRACTICE","FY5 3LF",10,12544,53.875111,-3.042545
"P81074","HIGHFIELD SURGERY","FY4 1TJ",19,13526,53.781401,-3.047383
"P81081","ARNOLD MEDICAL CENTRE","FY4 2EF",5,5214,53.78968,-3.038026
"P81092","THE CRESCENT SURGERY","FY5 3LF",8,8132,53.875111,-3.042545
"P81115","BLOOMFIELD MEDICAL CENTRE","FY1 6JW",21,15711,53.804417,-3.043644
"P81159","STONYHILL MEDICAL PRACTICE","FY4 1TJ",9,12706,53.781401,-3.047383
"P81172","NEWTON DRIVE HEALTH CENTRE","FY3 8NX",11,11385,53.825242,-3.0144
"P81681","NORTH SHORE SURGERY","FY2 0JG",12,13769,53.849555,-3.033503
"P81714","ABBEY DALE MEDICAL CENTRE","FY4 5AU",5,5942,53.788194,-3.02434
"Y02157","PIER SCHEME","FY1 6JX",1,1,53.805489,-3.04853
"Y05788","COMPASS MEDICAL PRACTICE","FY1 9NP",17,240,53.818696,-3.051848
"P82001","THE DUNSTAN PARTNERSHIP","BL2 6NT",14,10420,53.582354,-2.384279
"P82002","PIKES LANE 1","BL3 5HP",11,7611,53.572728,-2.446348
"P82003","KILDONAN HOUSE","BL6 5NW",12,15729,53.594788,-2.545363
"P82004","SWAN LANE MEDICAL CENTRE","BL3 6TL",8,9142,53.566945,-2.442391
"P82005","STABLE FOLD SURGERY","BL5 3SF",9,7005,53.552405,-2.52343
"P82006","DR MALHOTRA & PARTNERS","BL6 7AS",6,8101,53.601383,-2.547745
"P82007","KEARSLEY MEDICAL CENTRE","BL4 8EP",24,13538,53.543205,-2.382838
"P82008","STONEHILL MEDICAL CENTRE","BL4 9QZ",26,13853,53.543635,-2.402444
"P82009","ST HELENS ROAD PRACTICE","BL3 3RR",10,6711,53.559568,-2.457847
"P82010","DALEFIELD SURGERY","BL1 4JP",10,7691,53.588167,-2.451813
"P82011","TONGE FOLD HEALTH CENTRE","BL2 6DY",7,6528,53.579119,-2.405772
"P82012","OCTAGON MEDICAL CENTRE","BL1 1SQ",9,6154,53.576864,-2.431198
"P82013","LEVER CHAMBERS 2","BL3 6RN",12,3773,53.565624,-2.432443
"P82014","SPRING HOUSE SURGERY","BL1 6AF",6,6602,53.588374,-2.463553
"P82015","UNSWORTH GROUP PRACTICE","BL5 3UB",24,20438,53.550458,-2.508554
"P82016","HARWOOD MEDICAL CENTRE","BL2 3HQ",11,11705,53.604069,-2.398153
"P82018","THE ALASTAIR ROSS MEDICAL PRACTICE","BL2 6NT",9,7063,53.582354,-2.384279
"P82020","LITTLE LEVER HEALTH CENTRE 1","BL3 1JF",4,4387,53.559818,-2.370624
"P82021","THE OAKS FAMILY PRACTICE","BL1 8UP",16,7314,53.597486,-2.415226
"P82022","DR RIZWAN AND DR AWAN","BL1 3RG",6,4594,53.588322,-2.431738
"P82023","MANDALAY MEDICAL CENTRE","BL1 7LR",14,9210,53.610583,-2.432114
"P82025","BURNSIDE SURGERY","BL1 8TU",8,4828,53.592518,-2.424635
"P82029","HALLIWELL SURGERY 2","BL1 3RG",5,3573,53.588322,-2.431738
"P82030","DEANE MEDICAL CENTRE","BL3 5AH",5,3752,53.572699,-2.441983
"P82031","HEATON MEDICAL CENTRE","BL1 5PU",13,10901,53.587999,-2.469348
"P82033","BRADFORD STREET SURGERY","BL2 1HT",3,2075,53.576838,-2.418225
"P82034","EDGWORTH MEDICAL CENTRE","BL7 9RG",9,3286,53.617589,-2.426383
"P82036","LITTLE LEVER HEALTH CENTRE 2","BL3 1JF",6,2891,53.559818,-2.370624
"P82037","FIG TREE MEDICAL PRACTICE","BL4 9AL",5,4769,53.546194,-2.392388
"P82607","CROMPTON VIEW SURGERY","BL1 8UP",6,5535,53.597486,-2.415226
"P82609","SHANTI MEDICAL CENTRE","BL3 3PH",7,6255,53.563369,-2.451458
"P82613","SPRING VIEW MEDICAL CENTRE","BL3 1HQ",4,5193,53.560837,-2.369742
"P82616","BEEHIVE SURGERY","BL3 2JR",7,3972,53.564161,-2.419172
"P82624","ORIENT HOUSE MEDICAL CENTRE","BL3 5QE",6,3408,53.568942,-2.460819
"P82625","CHARLOTTE STREET SURGERY","BL1 8TU",2,2240,53.592518,-2.424635
"P82626","HALLIWELL SURGERY 3","BL1 3RG",6,4775,53.588322,-2.431738
"P82627","CORNERSTONE SURGERY","BL1 6AH",10,3852,53.588155,-2.457402
"P82629","DR S NASEEF","BL3 5HP",2,2074,53.572728,-2.446348
"P82633","GREAT LEVER ONE","BL3 6RN",4,2433,53.565624,-2.432443
"P82634","WYRESDALE ROAD SURGERY","BL1 4DN",6,4232,53.581577,-2.452196
"P82640","AL FAL MEDICAL GROUP","BL3 5HP",14,4339,53.572728,-2.446348
"P82643","BROMLEY MEADOWS SURGERY","BL7 9RG",8,6980,53.617589,-2.426383
"P82652","FARNWORTH FAMILY PRACTICE","BL4 9AH",4,3742,53.546123,-2.397759
"P82660","DEANE CLINIC 1","BL3 4LU",3,3528,53.56783,-2.464368
"Y00186","3D MEDICAL CENTRE","BL3 5DP",5,1660,53.573058,-2.444008
"Y02319","BOLTON GENERAL PRACTICE","BL1 4TH",6,5970,53.577666,-2.434874
"Y02790","BOLTON MEDICAL CENTRE","BL3 6PY",4,6374,53.565509,-2.431443
"Y03079","BOLTON COMMUNITY PRACTICE","BL1 8TU",18,13723,53.592518,-2.424635
"Y03366","OLIVE FAMILY PRACTICE","BL3 5HP",3,5098,53.572728,-2.446348
"P83001","FAIRFAX GROUP PRACTICE","M25 1BT",14,12715,53.533828,-2.28357
"P83004","THE UPLANDS MEDICAL PRACTICE","M45 8GH",7,7937,53.548583,-2.295815
"P83005","TOWNSIDE SURGERY","BL9 0SN",9,4811,53.59031,-2.29898
"P83006","RAMSBOTTOM MEDICAL PRACTICE","BL0 9DD",11,8397,53.64878,-2.319287
"P83007","RADCLIFFE MEDICAL PRACTICE","M26 2SP",13,9577,53.560143,-2.323706
"P83009","BLACKFORD HOUSE MEDICAL CENTRE","BL9 8QA",9,7784,53.574203,-2.283415
"P83010","MONARCH MEDICAL CENTRE","M26 2QZ",8,3632,53.564198,-2.316823
"P83011","UNSWORTH MEDICAL CENTRE","BL9 8JR",9,7359,53.560672,-2.273089
"P83012","TOWER FAMILY HEALTHCARE","BL8 4AD",59,49847,53.614768,-2.341446
"P83015","RIBBLESDALE MEDICAL PRACTICE","BL9 0SN",11,7176,53.59031,-2.29898
"P83017","WOODBANK SURGERY","BL8 1EG",12,4969,53.60507,-2.308802
"P83021","PEEL GPS","BL9 0SN",15,10390,53.59031,-2.29898
"P83024","KNOWSLEY MEDICAL CENTRE","BL9 0ST",7,4237,53.588515,-2.300612
"P83025","ST GABRIEL'S MEDICAL CENTRE","M25 0HT",9,8673,53.520809,-2.265791
"P83027","GREYLAND MEDICAL CENTRE","M25 1NL",3,2042,53.537682,-2.27617
"P83603","RED BANK GROUP PRACTICE","M26 2SP",7,9931,53.560143,-2.323706
"P83605","WHITTAKER LANE MED CENTRE","M25 1EX",10,7759,53.528486,-2.268658
"P83608","THE ELMS MEDICAL CENTRE","M45 7FD",8,5907,53.553233,-2.295201
"P83609","THE BIRCHES MEDICAL CENTRE","M25 2GN",6,3927,53.538361,-2.271091
"P83611","WALMERSLEY ROAD MEDICAL PRACTICE","BL9 6DX",1,4214,53.599894,-2.289556
"P83612","MILE LANE HEALTH CENTRE","BL8 2JR",5,4950,53.587814,-2.335248
"P83620","GARDEN CITY MEDICAL CENTRE","BL0 9TN",6,4412,53.629515,-2.330377
"P83621","HUNTLEY MOUNT MEDICAL CENTRE","BL9 6JA",4,3229,53.600201,-2.27859
"P83623","LONGFIELD MEDICAL PRACTICE","M25 1BT",3,5150,53.533828,-2.28357
"Y02755","ROCK HEALTHCARE LIMITED","BL9 0NJ",7,9374,53.59553,-2.288591
"P81010","WITHNELL HEALTH CENTRE","PR6 8UA",4,5435,53.692491,-2.556663
"P81033","COPPULL MEDICAL PRACTICE","PR7 5EN",9,8066,53.619715,-2.662501
"P81038","THE CHORLEY SURGERY","PR7 2EJ",13,9463,53.651345,-2.632451
"P81044","LIBRARY HOUSE SURGERY","PR7 2AD",16,17006,53.650664,-2.633893
"P81057","WORDEN MEDICAL CENTRE","PR25 1HR",14,12826,53.689645,-2.709316
"P81062","REGENT HOUSE SURGERY","PR7 2DH",8,7718,53.650323,-2.635371
"P81076","SANDY LANE SURGERY","PR25 2EB",13,11172,53.690542,-2.694123
"P81082","THE RYAN MEDICAL CENTRE","PR5 6JD",9,10110,53.730399,-2.663635
"P81083","ROSLEA SURGERY","PR5 6PE",14,8625,53.733794,-2.662551
"P81117","CENTRAL PARK SURGERY","PR25 2TD",6,4533,53.695314,-2.696068
"P81127","GAB HEALTHCARE","PR7 1HR",17,4182,53.653726,-2.635888
"P81143","WHITTLE SURGERY","PR6 7PS",12,10771,53.687926,-2.639617
"P81154","GRANVILLE HOUSE MED CTRE","PR6 9PY",9,8324,53.615297,-2.598459
"P81171","THE EUXTON MEDICAL CENTRE","PR7 6AH",6,4443,53.669016,-2.676836
"P81180","CLAYTON BROOK SURGERY","PR5 8ES",6,3600,53.711845,-2.637325
"P81181","KINGSFOLD MEDICAL CENTRE","PR1 9BX",8,4673,53.735866,-2.72392
"P81186","MOSS SIDE MEDICAL CENTRE","PR26 7XL",5,4506,53.690448,-2.726835
"P81655","THE VILLAGE SURGERIES CROSTON&ECCLESTON","PR26 9HJ",6,9654,53.662028,-2.772563
"P81687","NEW LONGTON SURGERY","PR4 4LU",5,1917,53.724232,-2.743528
"P81692","BEECHES MEDICAL CENTRE","PR4 5AB",4,2056,53.725648,-2.790431
"P81701","DR DAWOUD'S SURGERY","PR6 7EH",3,3003,53.710305,-2.64115
"P81740","ADLINGTON MEDICAL CENTRE","PR6 9NW",15,10354,53.618561,-2.596009
"P81741","STATION SURGERY","PR25 1HR",9,2753,53.689645,-2.709316
"Y00347","DR R BAGHDJIAN SURGERY","PR7 2TH",3,5402,53.652566,-2.636222
"Y02466","BUCKSHAW VILLAGE HEALTH CENTRE","PR7 7HZ",11,11435,53.678415,-2.658003
"Y03656","LEYLAND SURGERY","PR25 1HR",5,5757,53.689645,-2.709316
"P85001","DONALD WILDE MEDICAL CENTRE","OL1 2HG",5,55,53.549464,-2.120459
"P85002","ST MARY'S MEDICAL CENTRE","OL1 3UL",11,5824,53.543625,-2.108554
"P85003","THE CHOWDHURY PRACTICE","OL1 1NL",4,6631,53.543824,-2.116945
"P85004","CHADDERTON MEDICAL PRACTICE","OL9 0LH",8,5256,53.545559,-2.142182
"P85005","LEESBROOK SURGERY","OL4 3DG",10,9365,53.53879,-2.07266
"P85007","OLDHAM FAMILY PRACTICE","OL1 1NL",12,3564,53.543824,-2.116945
"P85008","FAILSWORTH GROUP PRACTICE","M35 0AD",15,12146,53.509855,-2.156747
"P85010","WOODLANDS MEDICAL PRACTICE","OL9 0LH",16,13088,53.545559,-2.142182
"P85011","CH MEDICAL PRACTICE","OL9 8NH",12,8787,53.533131,-2.14508
"P85012","OLDHAM MEDICAL SERVICES","OL8 3HF",7,5305,53.525357,-2.111235
"P85013","THE ROYTON & CROMPTON FAMILY PRACTICE","OL2 6QW",30,22262,53.566109,-2.121594
"P85014","HOPWOOD HOUSE MEDICAL PRACTICE","OL4 1JN",14,5640,53.542109,-2.095467
"P85015","ALEXANDRA GROUP MED PRACT","OL4 1YN",5,7640,53.537786,-2.095095
"P85016","SADDLEWORTH MEDICAL PRACTICE","OL3 6AH",16,14022,53.548331,-2.004957
"P85017","OAK GABLES MEDICAL PRACTICE","OL2 8ST",15,9195,53.574817,-2.095994
"P85018","MD FAMILY PRACTICE","OL9 7AY",3,4486,53.53731,-2.130534
"P85019","ROYTON MEDICAL CENTRE","OL2 5QL",7,5662,53.566464,-2.126109
"P85020","SPRINGFIELD HOUSE","OL4 2RJ",11,7741,53.548913,-2.082714
"P85021","GREENBANK MEDICAL PRACTICE","OL4 1BN",9,10688,53.537929,-2.096166
"P85022","LEES MEDICAL PRACTICE","OL4 3BP",6,4552,53.540281,-2.074881
"P85026","QUAYSIDE MEDICAL PRACTICE","M35 0AD",6,6609,53.509855,-2.156747
"P85028","BLOCK LANE SURGERY","OL9 7SG",12,5502,53.535037,-2.139039
"P85601","JALAL PRACTICE","OL1 1NL",4,3114,53.543824,-2.116945
"P85602","SARAF MEDICAL PRACTICE","OL1 4JU",4,2718,53.561455,-2.076954
"P85605","LITTLETOWN FAMILY MED PRACT","OL8 4LR",8,4880,53.529137,-2.134298
"P85606","MOORSIDE MEDICAL PRACTICE","OL1 4JU",6,3721,53.561455,-2.076954
"P85608","PERKINS PRACTICE","OL1 1NL",1,2764,53.543824,-2.116945
"P85610","MEDLOCK MEDICAL PRACTICE","M35 0AD",6,4243,53.509855,-2.156747
"P85612","WERNETH MEDICAL PRACTICE","OL9 7AY",4,3193,53.53731,-2.130534
"P85614","VILLAGE MEDICAL PRACTICE","OL2 8ST",7,3414,53.574817,-2.095994
"P85615","KAPUR FAMILY CARE","OL9 7AY",5,11327,53.53731,-2.130534
"P85620","ST CHADS MEDICAL PRACTICE","OL8 3HH",9,3074,53.515222,-2.126789
"P85621","SUNVALLEY MEDICAL PRACTICE","OL4 1YN",6,5165,53.537786,-2.095095
"P85622","GLODWICK MEDICAL PRACTICE","OL4 1YN",6,5431,53.537786,-2.095095
"P89006","PENNINE MEDICAL CENTRE","OL5 9AJ",13,12042,53.515337,-2.040966
"Y01124","THE DURU PRACTICE","OL1 1NL",6,4224,53.543824,-2.116945
"Y02753","HILL TOP SURGERY","OL8 2QD",16,4755,53.52011,-2.100756
"Y02827","JOHN STREET MEDICAL PRACTICE","OL8 1DF",11,4457,53.540449,-2.119272
"Y02875","LINDLEY HOUSE HEALTH CENTRE","OL1 1NL",11,3714,53.543824,-2.116945
"Y02933","HOLLINWOOD MEDICAL PRACTICE","OL8 3TR",13,5551,53.522114,-2.127652
"P81003","ST JAMES' MEDICAL CENTRE","BB4 8HH",14,9538,53.708959,-2.289474
"P81008","YORKSHIRE STREET MEDICAL CENTRE","BB11 3BT",11,6403,53.789132,-2.234807
"P81017","WHALLEY MEDICAL CENTRE","BB7 9SL",18,14037,53.819793,-2.406348
"P81020","BURNLEY GROUP PRACTICE","BB11 2DL",21,24909,53.791263,-2.238947
"P81025","THE RICHMOND HILL PRACTICE","BB8 0JZ",10,12422,53.856378,-2.166072
"P81027","IRWELL MEDICAL PRACTICE","OL13 9NR",23,14760,53.699744,-2.198274
"P81032","REEDYFORD HLTH CARE GROUP","BB9 7SR",16,12945,53.838042,-2.21885
"P81035","COLNE ROAD SURGERY","BB10 1LS",4,6903,53.801226,-2.236848
"P81036","PEEL HOUSE MEDICAL PRACTICE","BB5 2EJ",21,16031,53.750892,-2.365995
"P81047","PARKSIDE SURGERY","BB11 1PS",13,15828,53.794992,-2.24123
"P81053","BRIERCLIFFE SURGERY","BB10 2EZ",5,8000,53.810388,-2.212859
"P81065","THE PENDLE MEDICAL PARTNERSHIP","BB18 6QT",19,15114,53.915882,-2.144307
"P81069","PENDLESIDE MEDICAL PRACT","BB7 2JG",14,11320,53.873954,-2.3932
"P81070","PENDLE VIEW MEDICAL CTRE","BB9 5RZ",7,7712,53.826033,-2.232234
"P81078","BARNOLDSWICK MED CTR","BB18 5BG",12,11863,53.915192,-2.185854
"P81088","WHITWORTH MEDICAL CENTRE","OL12 8QS",10,7244,53.661184,-2.173956
"P81095","THURSBY SURGERY","BB10 3BF",8,8689,53.800664,-2.231682
"P81099","HASLINGDEN HEALTHCARE LTD","BB4 5SL",4,10755,53.703953,-2.324674
"P81100","THE CASTLE MEDICAL GROUP","BB7 2JG",26,14848,53.873954,-2.3932
"P81118","ILEX VIEW MEDICAL PRACTICE","BB4 7PL",8,8890,53.70081,-2.280663
"P81123","PWE PENDLE VALLEY MILL","BB9 7SR",16,13627,53.838042,-2.21885
"P81130","PADIHAM GROUP PRACTICE","BB12 8BP",17,13165,53.800549,-2.313805
"P81132","WATERFOOT MEDICAL PRACTICE","BB4 7DN",18,8957,53.691311,-2.251827
"P81137","BURNLEY WOOD MEDICAL CENTRE","BB11 3HR",6,6346,53.7842,-2.23575
"P81147","ARG HEALTHCARE","BB5 0AL",4,4267,53.752786,-2.375445
"P81160","OSWALD MEDICAL CENTRE","BB5 1RP",10,15145,53.752456,-2.383449
"P81165","IGHTENHILL MEDICAL CENTRE","BB12 0HL",2,2384,53.793391,-2.26727
"P81166","DR BELLO'S SURGERY","BB5 4LF",2,2624,53.754996,-2.390844
"P81170","NELSON MEDICAL PRACTICE","BB9 7SR",3,9254,53.838042,-2.21885
"P81182","RICHMOND MEDICAL CENTRE","BB5 1RT",11,6391,53.752328,-2.384874
"P81197","ROSEGROVE SURGERY","BB12 6HY",5,4807,53.789152,-2.279735
"P81212","HAZELVALLEY FAMILY PRACTICE","BB4 5SL",4,5094,53.703953,-2.324674
"P81218","THE CLAYTON MEDICAL CTR.","BB5 5HU",5,6516,53.774348,-2.384029
"P81620","SLAIDBURN HEALTH CENTRE","BB7 3EP",6,1270,53.967313,-2.444001
"P81686","ROSSENDALE VALLEY MEDICAL PRACTICE","BB4 5SL",1,2570,53.703953,-2.324674
"P81699","HIGHER HEYS SURGERY","BB5 3BP",2,2210,53.740865,-2.394094
"P81711","DILL HALL SURGERY","BB5 4LF",2,2752,53.754996,-2.390844
"P81726","KING STREET MEDICAL CTR","BB5 1QE",4,1924,53.753932,-2.36942
"P81730","GREAT HARWOOD MEDICAL GROUP","BB6 7QR",8,8256,53.788353,-2.403646
"P81731","DR JEHANGIR (SH)","BB9 7SR",1,2727,53.838042,-2.21885
"P81732","HARAMBEE SURGERY","BB8 8QU",8,4324,53.847709,-2.136792
"P81736","WHITEFIELD HEALTHCARE","BB9 7SR",6,4072,53.838042,-2.21885
"P81738","GREAT HARWOOD SURGERY","BB1 4LA",3,1065,53.768459,-2.414211
"P81755","THE WEAVERS PRACTICE","BB1 4LA",10,8710,53.768459,-2.414211
"P81757","BARROWFORD SURGERY","BB9 8QP",1,3467,53.848531,-2.223784
"P81780","RIVERSIDE FAMILY PRACTICE","BB11 2DL",2,5234,53.791263,-2.238947
"Y02605","PWE ACCRINGTON VICTORIA","BB5 6AS",4,3328,53.759584,-2.366921
"Y02606","FAIRMORE MEDICAL PRACTICE","BB4 7PL",7,5833,53.70081,-2.280663
"P86001","MILNROW VILLAGE PRACTICE","OL16 4EG",10,6923,53.606608,-2.106343
"P86002","DR GWD BHIMA","OL11 1DN",2,1615,53.611678,-2.154253
"P86003","EDENFIELD ROAD SURGERY","OL11 5AQ",17,11858,53.622297,-2.188671
"P86004","PETERLOO MEDICAL CENTRE","M24 4DZ",13,9409,53.54676,-2.20616
"P86005","YORKSHIRE ST SURGERY","OL16 2DN",5,6341,53.620446,-2.152215
"P86006","ASHWORTH STREET SURGERY","OL12 6RT",16,14585,53.619565,-2.165652
"P86007","WELLFIELD HEALTH CENTRE","OL11 1AD",16,12927,53.607039,-2.147616
"P86008","MARK STREET SURGERY","OL12 9BE",10,9575,53.62423,-2.144639
"P86009","CASTLETON HEALTH CENTRE","OL11 3HY",12,9816,53.597049,-2.182983
"P86010","THE JUNCTION SURGERY","M24 2AU",9,8527,53.541857,-2.174915
"P86011","LONGFORD STREET MEDICAL CENTRE","OL10 4NH",13,8855,53.594259,-2.218524
"P86012","WOODSIDE MEDICAL CENTRE","M24 5QL",10,8774,53.556347,-2.213286
"P86013","HEALEY SURGERY","OL12 0SN",6,6882,53.633087,-2.162786
"P86014","CROFT SHIFA HEALTH CENTRE","OL16 2UP",6,8693,53.622291,-2.141244
"P86015","ROCHDALE ROAD MEDICAL CENTRE","M24 2PU",5,4375,53.556752,-2.1957
"P86016","HEYWOOD HEALTH","OL10 3SD",18,9078,53.58737,-2.239335
"P86017","INSPIRE MEDICAL CENTRE","OL16 2UY",3,4370,53.622746,-2.138254
"P86018","LITTLEBOROUGH GROUP PRACTICE","OL15 8HF",15,8792,53.642995,-2.103349
"P86019","DURNFORD MEDICAL CENTRE","M24 6DL",16,9182,53.554038,-2.197033
"P86021","PENNINE SURGERY","OL15 8HF",5,3391,53.642995,-2.103349
"P86022","STONEFIELD STREET SURGERY","OL16 4JQ",13,9097,53.608017,-2.108991
"P86023","HOPWOOD MEDICAL CENTRE","OL10 2BS",7,8076,53.587143,-2.212052
"P86026","THE DAWES FAMILY PRACTICE","OL12 6RX",9,7698,53.619474,-2.165423
"P86602","HEADY HILL SURGERY","OL10 4RG",5,3444,53.593657,-2.241622
"P86606","FAMILY PRACTICE","M24 4EN",5,4969,53.554714,-2.216357
"P86608","THE VILLAGE MEDICAL CTR.","OL15 8AQ",12,4296,53.642757,-2.097994
"P86609","THE DALE MEDICAL PRACTICE","OL11 1DN",4,2333,53.611678,-2.154253
"P86614","DR A HAMID","OL11 1DN",5,4972,53.611678,-2.154253
"P86619","DR MB GHAFOOR & PARTNERS","OL11 1DN",4,6614,53.611678,-2.154253
"P86620","WINDERMERE SURGERY","M24 5WF",2,2489,53.55956,-2.205709
"P86624","TRINITY MEDICAL CENTRE","OL15 8AR",4,4056,53.642442,-2.0994
"Y00726","THE HIVE HEALTH CENTRE","M24 2YJ",5,5294,53.55683,-2.187672
"Y02718","BIRTLE VIEW MEDICAL PRACTICE","OL10 4PW",7,3440,53.595039,-2.227878
"Y02720","THE KINGSWAY PRACTICE","OL16 4AT",7,3406,53.613309,-2.136045
"Y02721","KIRKHOLT MEDICAL PRACTICE","OL11 2JG",9,3310,53.593843,-2.156016
"Y02795","MIDDLETON HEALTH CENTRE","M24 4EL",12,4255,53.548242,-2.201051
"P81015","LYTHAM ROAD SURGERY","PR2 8JB",16,11327,53.77784,-2.710575
"P81018","ST FILLAN'S MEDICAL CTRE","PR1 0AD",13,8508,53.750297,-2.728759
"P81040","LONGTON HEALTH CENTRE","PR4 5HA",13,10806,53.727756,-2.780194
"P81046","PARK VIEW SURGERY","PR1 3NA",5,6070,53.754618,-2.700719
"P81055","BERRY LANE MEDICAL CENTRE","PR3 3JJ",14,12199,53.831528,-2.602723
"P81067","THE HEALTHCARE CENTRE","PR1 5AF",14,13558,53.776145,-2.688407
"P81071","THE NEW HALL LANE PRACTICE","PR1 5NE",10,7398,53.763937,-2.680483
"P81103","NORTH PRESTON MEDICAL PRACTICE","PR2 9TH",11,10804,53.791322,-2.71516
"P81107","STONEBRIDGE SURGERY","PR3 3AP",8,7711,53.827609,-2.608242
"P81119","LANE ENDS SURGERY","PR2 2JJ",8,8804,53.770173,-2.727014
"P81169","FISHERGATE HILL SURGERY","PR1 8DN",8,6459,53.754455,-2.714363
"P81179","LOSTOCK HALL MEDICAL CTR.","PR5 5AB",3,5191,53.727502,-2.688037
"P81184","RIBBLETON MEDICAL CENTRE","PR2 6RD",12,8460,53.776802,-2.661013
"P81185","RIVERSIDE MEDICAL CENTRE","PR5 4AY",13,11031,53.748112,-2.672299
"P81196","ISSA MEDICAL CENTRE - PATEL","PR1 6YA",11,32114,53.770309,-2.686837
"P81213","ST. MARY'S HEALTH CENTRE","PR1 0SR",15,18995,53.747433,-2.729589
"P81647","GUTTERIDGE MEDICAL CENTRE","PR1 6LL",4,3885,53.769879,-2.691275
"P81664","THE PARK MEDICAL PRACTICE","PR2 1JR",20,17570,53.77018,-2.739045
"P81685","DR ALI GUTTRIDGE MEDICAL CENTRE","PR1 6LL",5,2874,53.769879,-2.691275
"P81735","DR A HUSSAIN","PR2 6NH",1,3470,53.770747,-2.657277
"P81748","BRIARWOOD MEDICAL CENTRE","PR2 1HY",11,6420,53.769732,-2.735957
"P81770","AVENHAM SURGERY","PR1 3RG",4,6556,53.756977,-2.693948
"N81011","BEVAN GROUP PRACTICE","WA8 6TR",15,15006,53.379727,-2.724553
"N81019","CASTLEFIELDS HEALTH CENTRE","WA7 2ST",20,13530,53.338823,-2.691795
"N81035","FIR PARK MEDICAL CENTRE","WA8 6DZ",16,10793,NA,NA
"N81037","THE BEECHES MEDICAL CTR","WA8 8QS",8,8585,53.363827,-2.766104
"N81045","PEELHOUSE MEDICAL PLAZA","WA8 6TN",14,14136,53.372115,-2.72256
"N81054","WEAVER VALE PRACTICE","WA7 2UT",18,9145,53.324807,-2.696628
"N81057","TOWER HOUSE PRACTICE","WA7 1AB",15,12926,53.341171,-2.73246
"N81064","NEWTOWN SURGERY","WA8 7GD",4,7096,53.362158,-2.735705
"N81066","GROVE HOUSE PRACTICE","WA7 1AB",23,14536,53.341171,-2.73246
"N81072","MURDISHAW","WA7 6ES",6,8244,53.323997,-2.662128
"N81096","BROOKVALE PRACTICE","WA7 2UT",16,8668,53.324807,-2.696628
"N81119","HOUGH GREEN HEALTH PARK","WA8 4NJ",3,5098,NA,NA
"N81619","OAKS PLACE SURGERY","WA8 7GD",3,3886,53.362158,-2.735705
"N81651","UPTON ROCKS PRIMARY CARE","WA8 7NU",5,3514,53.373367,-2.754371
"P87002","THE POPLARS MEDICAL PRACTICE","M27 0NA",18,11697,53.510603,-2.34171
"P87004","1/SALFORD MEDICAL PRACTICE","M6 5PP",15,6699,53.487206,-2.294577
"P87008","WALKDEN MEDICAL CENTRE","M28 3AT",14,8564,53.522942,-2.397527
"P87015","PENDLETON MEDICAL CENTRE","M6 5FX",9,3822,53.488361,-2.284742
"P87016","THE SIDES MEDICAL PRACTICE","M27 0EW",21,13185,53.505945,-2.35423
"P87017","THE LIMES MEDICAL PRACTICE","M28 3AT",10,5226,53.522942,-2.397527
"P87019","SILVERDALE MEDICAL PRACTICE","M27 8HP",20,12572,53.518793,-2.331475
"P87020","ST ANDREWS MEDICAL CENTRE","M30 0NU",17,15630,53.484875,-2.339619
"P87022","MOCHA PARADE MEDICAL PRACTICE","M7 3SE",4,2046,53.502569,-2.277992
"P87024","3/SPRINGFIELD HOUSE MEDICAL PRACTICE","M30 8QD",12,10434,53.480252,-2.362019
"P87025","THE LAKES MEDICAL PRACTICE","M27 4AF",21,9668,53.509205,-2.33372
"P87026","NEWBURY GREEN MEDICAL PRACTICE","M7 4NX",18,11764,53.506995,-2.26047
"P87027","LANGWORTHY MEDICAL PRACTICE","M6 5WW",23,19601,53.489371,-2.294771
"P87028","THE GILL MEDICAL PRACTICE","M28 3DR",20,7173,53.524288,-2.398384
"P87032","ORIENT ROAD MEDICAL PRACTICE","M6 8LE",8,5467,53.494182,-2.325434
"P87035","ORDSALL HEALTH SURGERY","M5 3PH",8,10525,53.473882,-2.280291
"P87040","SORREL BANK MEDICAL PRACTICE","M6 7HL",13,8990,53.493344,-2.294815
"P87610","THE MOSSLANDS MEDICAL PRACTICE","M44 5LH",18,13479,53.437925,-2.432258
"P87613","CLEGGS LANE MEDICAL PRACTICE/129","M38 9RS",5,3913,53.534939,-2.419336
"P87618","WALKDEN GATEWAY MEDICAL PRACTICE","M28 3EZ",17,2083,53.524898,-2.398541
"P87620","1/MONTON MEDICAL PRACTICE","M30 8AR",9,9604,53.491862,-2.356978
"P87624","ELLENBROOK MEDICAL CENTRE","M28 1PB",10,5141,53.511185,-2.413552
"P87625","DEARDEN AVENUE MEDICAL PRACTICE","M38 9GH",6,2470,53.533827,-2.418615
"P87627","ORCHARD MEDICAL PRACTICE","M28 1LZ",3,3203,53.502916,-2.420948
"P87630","CHERRY MEDICAL PRACTICE","M28 0AY",6,2842,53.529872,-2.423902
"P87634","CLARENDON SURGERY","M6 5FX",18,10524,53.488361,-2.284742
"P87639","CORNERSTONE MEDICAL PRACTICE","M6 5QQ",6,3338,53.483802,-2.296918
"P87648","REUT MEDICAL PRACTICE","M7 4NX",4,6107,53.506995,-2.26047
"P87649","CHAPEL GROUP MEDICAL CENTRE","M44 6FE",10,6628,53.449094,-2.418293
"P87651","LIMEFIELD ROAD MEDICAL PRACTICE","M7 4NX",7,5592,53.506995,-2.26047
"P87654","DR A CHAUDHRY & DR I JEET","M7 1RD",18,11136,53.49359,-2.258808
"P87657","(IRLAM) SALFORD CARE CTRS MEDICAL PRACTI","M44 6DP",10,2918,53.449107,-2.417074
"P87658","THE WILLOWS MEDICAL PRACTICE","M5 5JR",2,3480,53.485461,-2.309137
"P87661","MANCHESTER ROAD EAST MEDICAL PRACTICE","M28 0BB",4,2171,53.527129,-2.418653
"Y00445","SALFORD PRIMARY CARE TOGETHER","M28 0BB",25,20639,53.527129,-2.418653
"Y02622","BLACKFRIARS","M3 6AF",5,13913,53.483791,-2.25433
"Y02625","CARE HOMES MEDICAL PRACTICE","M6 5FW",6,1040,53.488703,-2.289026
"Y02767","THE HEIGHT GENERAL PRACTICE","M6 7NJ",10,5637,53.500671,-2.308735
"A82004","ALSTON MEDICAL PRACTICE","CA9 3QX",6,2246,NA,NA
"A82006","APPLEBY MEDICAL PRACTICE","CA16 6QR",10,5027,54.578082,-2.492993
"A82012","BRAMPTON MEDICAL PRACTICE","CA8 1NL",27,16570,54.94237,-2.734846
"A82013","UPPER EDEN MEDICAL PRACTICE","CA17 4RB",20,6675,54.474718,-2.350134
"A82014","CALDBECK SURGERY","CA7 8DS",9,4398,54.749864,-3.050622
"A82015","CARLISLE CENTRAL PRACTICE","CA1 1EB",10,5308,54.893858,-2.928541
"A82016","CARLISLE HEALTHCARE","CA1 1DG",45,36897,54.893714,-2.930647
"A82018","SPENCER ST SURGERY","CA1 1BP",14,12856,54.894881,-2.931153
"A82019","FUSEHILL MEDICAL PRACTICE","CA1 2HE",11,8125,54.890621,-2.92287
"A82020","EDEN MEDICAL GROUP","CA2 7AJ",20,15849,54.894174,-2.952455
"A82021","CASTLEGATE AND DERWENT SURGERY","CA13 9HT",29,17514,54.667192,-3.358501
"A82022","DALSTON MEDICAL GROUP","CA5 7PZ",11,5086,54.841376,-2.985542
"A82023","DISTINGTON SURGERY","CA14 5UR",12,5299,54.595305,-3.541351
"A82024","SEASCALE HEALTH CENTRE","CA20 1PN",18,5776,54.396973,-3.479867
"A82028","CASTLEHEAD MEDICAL CENTRE","CA12 4DB",13,8425,54.59769,-3.134572
"A82029","THE CROFT SURGERY","CA7 5JH",8,3431,54.896921,-3.202914
"A82031","SHAP MEDICAL PRACTICE","CA10 3LW",8,3112,54.52889,-2.677931
"A82032","MARYPORT HEALTH SERVICES","CA15 8EL",25,13849,54.706432,-3.494531
"A82035","BIRBECK MEDICAL GROUP","CA11 8HW",27,14323,54.656225,-2.743839
"A82036","THE LAKES MEDICAL PRACTICE","CA11 8HW",15,10677,54.656225,-2.743839
"A82037","SILLOTH GROUP MEDICAL PRACTICE","CA7 4AH",4,4345,54.869704,-3.393571
"A82038","TEMPLE SOWERBY MEDICAL PRACTICE","CA10 1RW",11,4887,54.636786,-2.605303
"A82041","LOWTHER MEDICAL CENTRE","CA28 7RG",22,10107,54.545056,-3.586392
"A82044","FELLVIEW HEALTHCARE","CA22 2BD",24,24387,54.482542,-3.532985
"A82045","WIGTON GROUP MEDICAL PRACTICE","CA7 9QD",13,8905,54.820303,-3.159002
"A82047","JAMES STREET GROUP PRACT","CA14 2DL",22,33089,54.644831,-3.550292
"A82055","ASPATRIA MEDICAL GROUP","CA7 3HH",12,6833,54.762123,-3.337992
"A82058","QUEEN STREET MEDICAL PRACTICE","CA28 7BA",8,4343,54.546567,-3.589063
"A82064","WESTCROFT HOUSE SURGERY","CA22 2DB",9,4959,54.483145,-3.528592
"A82075","MANSION HOUSE SURGERY","CA28 7BU",13,7025,54.545946,-3.58842
"A82617","KIRKOSWALD SURGERY","CA10 1DQ",7,2694,54.76377,-2.692576
"A82620","GLENRIDDING HEALTH CENTRE","CA11 0PD",4,915,54.544383,-2.951273
"A82631","COURT THORN SURGERY","CA4 0HP",7,3562,54.801828,-2.826247
"A82646","LONGTOWN MEDICAL CENTRE","CA6 5XA",10,3552,55.010459,-2.9644
"A82654","WARWICK SQUARE GROUP PRACTICE","CA1 1LB",10,7652,54.893135,-2.92681
"N83009","WINGATE MEDICAL CENTRE","L33 6YJ",17,12188,53.488385,-2.874647
"N83013","THE HEALTH CENTRE SURGERY","L26 9UH",9,4944,53.359024,-2.82558
"N83014","DINAS LANE MEDICAL CENTRE","L36 2NW",9,10671,53.417388,-2.861513
"N83015","BLUEBELL LANE SURGERY","L36 7XY",3,4666,53.419526,-2.842807
"N83018","STOCKBRIDGE VILLAGE HC","L28 1ST",14,8771,NA,NA
"N83024","PARK HOUSE MEDICAL CENTRE","L34 1ND",10,7531,53.426707,-2.805295
"N83025","CORNERWAYS MEDICAL CENTRE","L36 3TN",6,9260,53.422901,-2.85592
"N83028","ASTON HEALTHCARE LIMITED","L36 0UB",21,24000,53.404553,-2.831049
"N83030","DR M SUARES' PRACTICE","L14 0JE",8,5407,53.413984,-2.873585
"N83031","ROSEHEATH SURGERY","L26 9UH",2,2590,53.359024,-2.82558
"N83032","MILLBROOK MEDICAL CENTRE","L32 9PF",10,11633,53.475697,-2.887584
"N83033","ST. LAURENCE'S MEDICAL CENTRE","L32 9QU",6,5777,53.475161,-2.882285
"N83043","LONGVIEW MEDICAL CENTRE","L36 6EB",4,3935,53.415399,-2.825032
"N83047","TARBOCK MEDICAL CENTRE","L36 0UB",3,4881,53.404553,-2.831049
"N83055","TRENTHAM MEDICAL CENTRE","L32 8RE",5,5781,53.48238,-2.885417
"N83601","THE MACMILLAN SURGERY","L32 8RE",6,6294,53.48238,-2.885417
"N83603","PRESCOT MEDICAL CENTRE","L34 1ND",9,6798,53.426707,-2.805295
"N83605","HOLLIES MEDICAL CENTRE","L26 0TH",7,5945,53.367868,-2.828607
"N83608","DR MAASSARANI & PARTNERS","L33 1XT",8,10714,53.495201,-2.88656
"N83609","CEDAR CROSS MEDICAL CENTRE","L35 3SX",3,4170,53.415642,-2.800887
"N83610","COLBY MEDICAL CENTRE","L36 7XY",1,2349,53.419526,-2.842807
"N83619","ROBY MEDICAL CENTRE","L36 4NP",5,2317,53.411621,-2.868482
"N83621","HILLSIDE HOUSE SURGERY","L36 7XY",3,2817,53.419526,-2.842807
"N83622","PRIMROSE MEDICAL PRACTICE","L36 7XY",2,2620,53.419526,-2.842807
"N83633","NUTGROVE VILLA SURGERY","L36 6GA",6,3742,53.410414,-2.840851
"A82003","ULVERSTON HEALTH CENTRE (MURRAY)","LA12 7BT",15,11371,54.198882,-3.097833
"A82005","AMBLESIDE HEALTH CENTRE","LA22 9BP",21,6199,54.435059,-2.96636
"A82007","DUKE STREET SURGERY","LA14 1LF",14,9765,54.11116,-3.226145
"A82008","NORWOOD MEDICAL CENTRE","LA14 5ES",18,11033,54.119201,-3.222974
"A82009","BRIDGEGATE MEDICAL CENTRE","LA13 9SH",16,8804,54.114321,-3.208695
"A82010","ABBEY ROAD SURGERY","LA14 2LB",9,6503,54.109942,-3.224778
"A82025","CAPTAIN FRENCH SURGERY","LA9 4JE",22,10803,54.323429,-2.748562
"A82026","THE JAMES COCHRANE PRACT.","LA9 7HR",26,17586,54.312706,-2.737133
"A82027","STATION HOUSE SURGERY","LA9 6SA",20,9938,54.331941,-2.739769
"A82030","LUNESDALE SURGERY","LA6 2HQ",15,6498,54.200573,-2.602213
"A82033","WATERLOO HOUSE SURGERY","LA18 4BY",14,8065,54.20894,-3.268021
"A82039","DALTON SURGERY","LA15 8AB",16,8786,54.155917,-3.179816
"A82046","WINDERMERE HEALTH CENTRE","LA23 2EG",16,5270,54.370871,-2.913421
"A82053","NUTWOOD MEDICAL PRACTICE","LA11 7DJ",19,7724,54.187956,-2.915665
"A82062","ATKINSON HEALTH CENTRE","LA14 2LB",8,5043,54.109942,-3.224778
"A82068","ULVERSTON COMMUNITY HEALTH CENTRE","LA12 7BT",6,4490,54.198882,-3.097833
"A82070","ST. MARY'S SURGERY","LA23 1BA",10,6382,54.380765,-2.908837
"A82071","BURNETT EDGAR MEDICAL CTR","LA14 3HY",6,4274,54.107143,-3.254924
"A82072","RISEDALE SURGERY","LA14 2LB",8,6516,54.109942,-3.224778
"A82077","LIVERPOOL HOUSE SURGERY","LA13 9QY",4,5233,54.112713,-3.20952
"A82608","SEDBERGH MEDICAL PRACTICE","LA10 5DL",9,4496,54.322391,-2.535271
"A82613","WRAYSDALE HOUSE SURGERY","LA21 8ER",4,1027,54.367247,-3.076077
"A82629","THE FAMILY PRACTICE","LA14 5SL",5,3051,54.116755,-3.229282
"A82647","CARTMEL SURGERY","LA11 6PH",7,2992,54.199165,-2.946985
"A82650","HAVERTHWAITE SURGERY","LA12 8QF",6,2805,54.251457,-2.99363
"A82651","DUDDON VALLEY MEDICAL PRACTICE","LA17 7TE",5,4755,54.232419,-3.184682
"B82061","BENTHAM MEDICAL PRACTICE","LA2 7JP",12,7318,54.119172,-2.511134
"P81002","LANCASTER MEDICAL PRACTICE","LA1 1PN",69,66190,54.047583,-2.797202
"P81013","QUEEN SQUARE MEDICAL PRACTICE","LA1 1RP",27,15214,54.046219,-2.800994
"P81029","ASH TREES SURGERY","LA5 9JU",37,25185,54.12945,-2.768901
"P81113","PARK VIEW SURGERY","LA7 7PS",8,6161,54.227652,-2.77111
"Y01008","BAY MEDICAL GROUP","LA3 2LE",68,54096,54.041719,-2.894057
"N84001","42 KINGSWAY","L22 4RQ",14,9440,53.481011,-3.020167
"N84002","AINTREE ROAD MEDICAL CENTRE","L20 9DL",3,2485,53.456493,-2.981972
"N84003","HIGH PASTURES SURGERY","L31 2HW",14,10369,53.519395,-2.946534
"N84004","GLOVERS LANE SURGERY","L30 5TA",9,7576,53.488314,-2.971961
"N84007","LIVERPOOL RD MEDICAL PRACTICE","L23 5TE",4,5868,53.486656,-3.023302
"N84010","MAGHULL FAMILY SURGERY","L31 0DJ",3,5537,53.515597,-2.943932
"N84011","EASTVIEW SURGERY","L22 4QD",5,6650,53.481078,-3.023693
"N84015","BOOTLE VILLAGE SURGERY","L20 3EW",8,6269,53.449573,-2.989674
"N84016","MOORE STREET MEDICAL CENTRE","L20 4SE",6,6223,53.458715,-3.002523
"N84019","NORTH PARK HEALTH CENTRE","L20 5DQ",10,6449,53.458392,-2.995994
"N84020","BLUNDELLSANDS SURGERY","L23 6TZ",14,10038,53.484503,-3.041347
"N84023","BRIDGE ROAD MEDICAL CENTRE","L21 6PH",11,7221,53.467586,-3.001647
"N84025","WESTWAY MEDICAL CENTRE","L31 0DJ",17,9007,53.515597,-2.943932
"N84026","CROSBY VILLAGE SURGERY","L23 2TE",5,2952,53.493775,-3.026533
"N84027","ORRELL PARK MEDICAL CENTRE","L9 8BU",6,4621,53.462408,-2.96319
"N84028","THE STRAND MEDICAL CENTRE","L20 5BW",9,7489,53.453933,-2.992862
"N84029","FORD MEDICAL PRACTICE","L21 0DF",12,5935,53.481307,-2.996877
"N84034","PARK STREET SURGERY","L20 3DF",14,5831,53.450324,-2.986679
"N84035","15 SEFTON ROAD","L21 9HA",5,4093,53.471271,-3.000316
"N84038","CONCEPT HOUSE SURGERY","L20 3BG",9,5866,53.449136,-2.98492
"N84041","KINGSWAY SURGERY","L22 4RQ",8,5263,53.481011,-3.020167
"N84043","SEAFORTH VILLAGE SURGERY","L21 3TA",3,2009,53.465932,-3.006971
"N84605","LITHERLAND PRACTICE","L21 9JN",6,3783,53.472727,-3.002733
"N84615","RAWSON ROAD MEDICAL CENTRE","L21 1HP",3,2751,53.468931,-3.015855
"N84621","GREAT CROSBY AND THORNTON","L23 1TQ",15,2884,53.497066,-2.997759
"N84626","HIGHTOWN VILLAGE SURGERY","L38 3RY",8,1969,53.530081,-3.058369
"N84627","CROSSWAYS PRACTICE","L23 0QW",4,2512,53.484655,-3.023992
"N84630","NETHERTON SURGERY","L30 5SP",4,2697,53.488626,-2.97236
"Y00446","MAGHULL PRACTICE","L31 0DJ",4,3204,53.515597,-2.943932
"N84005","CUMBERLAND HOUSE SURGERY","PR8 6PG",10,11198,53.638741,-2.990435
"N84006","CHAPEL LANE SURGERY","L37 4DL",17,7930,53.557075,-3.061428
"N84008","NORWOOD SURGERY","PR9 7EG",13,9778,53.650008,-2.97819
"N84012","AINSDALE MEDICAL CENTRE","PR8 3HW",15,11637,53.602422,-3.038714
"N84013","CHRISTIANA HARTLEY MEDICAL PRACTICE","PR8 6PL",12,10688,53.640182,-2.983572
"N84014","AINSDALE VILLAGE SURGERY","PR8 3LB",6,3554,53.601203,-3.036526
"N84017","CHURCHTOWN MEDICAL CENTRE","PR9 7LT",16,9834,53.661789,-2.965053
"N84018","THE VILLAGE SURGERY FORMBY","L37 4AW",12,13743,53.555904,-3.06167
"N84021","ST MARKS MEDICAL CENTRE (TCG MEDICAL)","PR9 0TZ",22,16570,53.646917,-2.995455
"N84024","GRANGE SURGERY","PR8 2AD",11,9442,53.637172,-3.012755
"N84037","LINCOLN HOUSE SURGERY","PR8 4PR",3,2038,53.618786,-3.012209
"N84613","THE CORNER SURGERY (DR MULLA)","PR9 9XP",8,4110,53.671889,-2.963164
"N84614","THE MARSHSIDE SURGERY","PR9 9XL",4,2948,53.671433,-2.963125
"N84617","KEW SURGERY","PR8 6RG",2,4452,53.631816,-2.98353
"N84618","THE HOLLIES FAMILY SURGERY","L37 4AF",9,4077,53.55525,-3.061442
"N84625","THE FAMILY SURGERY","PR8 4DB",12,4537,53.629265,-3.011356
"P88002","MARPLE BRIDGE SURGERY","SK6 5AA",11,6338,53.400646,-2.053337
"P88003","MANOR MEDICAL PRACTICE","SK2 5AR",11,9198,53.403467,-2.136713
"P88005","FAMILY SURGERY","SK5 6RN",21,11450,53.44592,-2.156963
"P88006","MARPLE COTTAGE SURGERY","SK6 6BW",13,7718,53.392725,-2.061042
"P88007","CHEADLE HULME MEDICAL GROUP","SK8 6LU",15,13786,53.366475,-2.191357
"P88008","HEATON MERSEY MED.PRACT.","SK4 3BT",13,8144,53.412519,-2.205118
"P88009","WOODLEY VILLAGE SURGERY","SK6 1ND",5,3336,53.426289,-2.099661
"P88011","HEATON NORRIS MEDICAL PRACTICE","SK4 1JX",25,7375,53.416532,-2.16793
"P88012","BEECH HOUSE MEDICAL PRACT","SK7 4QR",20,7929,53.379406,-2.118146
"P88013","CARITAS GENERAL PRACTICE PARTNERSHIP","SK2 6BZ",20,12805,53.395928,-2.134599
"P88014","ADSHALL ROAD MEDICAL PRAC","SK8 2JN",12,4740,53.390044,-2.191072
"P88015","BRAMHALL HEALTH CENTRE","SK7 2DY",19,12207,53.36001,-2.162929
"P88016","BRAMHALL & SHAW HEATH MEDICAL GROUP","SK7 3EP",19,14176,53.376037,-2.162344
"P88017","CHADSFIELD MEDICAL PRACTICE","SK6 4QR",16,6882,53.414998,-2.08993
"P88018","PARK VIEW GROUP PRACTICE","SK5 6ET",16,9471,53.445476,-2.160577
"P88019","ALVANLEY FAMILY PRACTICE","SK6 1ND",8,5962,53.426289,-2.099661
"P88020","CHEADLE MEDICAL PRACTICE","SK8 1BH",22,11753,53.393745,-2.213539
"P88021","MARPLE MEDICAL PRACTICE","SK6 6AB",15,7084,53.39495,-2.064954
"P88023","HEALD GREEN HEALTH CENTRE 2","SK8 3JD",13,6685,53.369878,-2.229276
"P88024","GATLEY MEDICAL CENTRE","SK8 4DG",16,9747,53.393794,-2.235344
"P88025","HULME HALL MEDICAL GROUP","SK8 6LU",14,10785,53.366475,-2.191357
"P88026","HEATON MOOR MEDICAL GROUP","SK4 4NX",53,45802,53.424819,-2.180393
"P88031","BRACONDALE MEDICAL CENTRE","SK2 6EQ",10,5501,53.393998,-2.147089
"P88034","CALE GREEN SURGERY","SK3 8JE",3,4013,53.397148,-2.158364
"P88041","THE VILLAGE SURGERY","SK7 2DN",12,7246,53.35927,-2.165195
"P88042","FINNEY LANE SURGERY","SK8 3JD",15,6770,53.369878,-2.229276
"P88043","BRINNINGTON SURGERY","SK5 8BS",15,9310,53.427651,-2.132367
"P88044","BREDBURY MEDICAL CENTRE","SK6 2AH",7,4298,53.422915,-2.114054
"P88606","SPRINGFIELD SURGERY","SK7 4AA",10,5826,53.382123,-2.122963
"P88607","THE GUYWOOD PRACTICE","SK6 4QR",5,2954,53.414998,-2.08993
"P88610","SOUTH REDDISH MEDICAL CTR 2","SK5 7QU",4,3550,53.422309,-2.156517
"P88615","VERNON PARK SURGERY","SK1 2EX",2,3181,53.418469,-2.142688
"P88623","HIGH LANE MEDICAL CENTRE","SK6 8DR",13,6530,53.364978,-2.075293
"P88625","ARCHWOOD MEDICAL PRACTICE","SK6 1ND",15,7975,53.426289,-2.099661
"P88632","STOCKPORT MEDICAL GROUP","SK3 9NX",29,17404,53.402873,-2.177788
"Y00912","DR H LLOYD'S PRACTICE","SK2 6JG",5,1836,53.393784,-2.153043
"N83001","RAINBOW MEDICAL CENTRE","WA9 3PN",22,14665,53.435389,-2.705931
"N83002","PATTERDALE LODGE MED CTRE","WA12 9NA",14,11973,53.452446,-2.64461
"N83003","ORMSKIRK HOUSE SURGERY","WA10 2DJ",5,7434,53.456686,-2.74261
"N83005","VISTA ROAD SURGERY","WA12 9ED",7,8358,53.457808,-2.645459
"N83006","PHOENIX MEDICAL CENTRE","WA10 2HT",5,3558,53.457769,-2.744752
"N83007","LINGHOLME HEALTH CENTRE","WA10 2HT",2,2582,53.457769,-2.744752
"N83008","BERRYMEAD FAMILY MED.CTR.","WA9 3RP",8,7909,53.444044,-2.698502
"N83010","RAINHILL VILLAGE SURGERY","L35 4LP",9,6931,53.41631,-2.763813
"N83012","MILL STREET MEDICAL CTR.","WA10 2BD",15,10647,53.456568,-2.739942
"N83017","HALL STREET MEDICAL CENTRE","WA10 1DW",5,4895,53.45265,-2.73248
"N83019","BILLINGE MEDICAL PRACTICE","WN5 7LY",15,8754,53.497666,-2.706951
"N83020","HAYDOCK MEDICAL CENTRE","WA11 0NA",19,14925,53.468334,-2.656554
"N83021","FOUR ACRE HEALTH CENTRE","WA9 4QB",8,8323,53.418906,-2.723398
"N83023","ATLAS MEDICAL PRACTICE","WA9 1LN",20,6556,53.454211,-2.724149
"N83026","PARKFIELD SURGERY","WA10 2DJ",1,2579,53.456686,-2.74261
"N83027","CENTRAL SURGERY","WA10 2DJ",9,6659,53.456686,-2.74261
"N83035","THE SPINNEY MEDICAL CTR.","WA10 3EB",12,7141,53.442443,-2.757627
"N83041","RAINFORD HEALTH CENTRE","WA11 8AZ",7,4773,53.500774,-2.781898
"N83045","NEWTON PRACTICE","WA12 0JJ",9,4787,53.457172,-2.638386
"N83049","KENNETH MACRAE MED CENTRE","WA11 8HJ",5,4006,53.49903,-2.786435
"N83050","THE BOWERY MEDICAL CENTRE","WA9 5PR",4,4103,53.436203,-2.757983
"N83053","LONGTON MEDICAL CENTRE","L35 4LL",8,5701,53.417492,-2.770123
"N83054","BETHANY MEDICAL CENTRE","WA10 4GW",4,4173,53.45317,-2.758616
"N83060","HOLLY BANK SURGERY","WA9 1LN",2,3591,53.454211,-2.724149
"N83604","CORNERSTONE SURGERY","WA9 1LN",5,2436,53.454211,-2.724149
"N83614","ECCLESTON MEDICAL CENTRE","WA10 5RG",11,5041,53.452217,-2.769561
"N83620","WINDERMERE MEDICAL CENTRE","WA11 7AG",4,3339,53.475588,-2.729666
"N83624","DR RAHIL'S SURGERY","WA11 0DN",2,2966,53.464803,-2.693285
"N83628","NEWTON COMMUNITY HOSPITAL PRACTICE","WA12 8RB",3,4533,53.445979,-2.635267
"N83635","THE CROSSROADS SURGERY","L35 4LL",7,2614,53.417492,-2.770123
"N83637","NEWHOLME SURGERY","WA10 2DJ",3,3409,53.456686,-2.74261
"Y00475","GARSWOOD SURGERY","WN4 0XD",7,5121,53.49641,-2.681394
"Y02510","MARSHALLS CROSS MEDICAL CENTRE","WA9 3DA",7,5634,53.439528,-2.718901
"C81077","HOWARD STREET MEDICAL PRACTICE","SK13 7DE",9,3421,53.445062,-1.94969
"C81081","MANOR HOUSE SURGERY","SK13 8PS",19,17175,53.443952,-1.945172
"C81106","LAMBGATES HEALTH CENTRE","SK13 1DJ",10,6492,53.463477,-1.970153
"C81615","COTTAGE LANE SURGERY","SK13 6EQ",6,2220,53.447138,-1.9809
"C81640","SIMMONDLEY MEDICAL PRACTICE","SK13 6NN",4,3782,53.43954,-1.969041
"P89002","THE BROOKE SURGERY","SK14 1AT",14,13029,53.452136,-2.081215
"P89003","ALBION MEDICAL PRACTICE","OL6 6HF",12,9457,53.489604,-2.088476
"P89004","AWBURN HOUSE MEDICAL PRACTICE","SK14 6LA",6,6822,53.458105,-2.011
"P89005","LOCKSIDE MEDICAL CENTRE","SK15 2PT",10,8222,53.484945,-2.046286
"P89007","STAVELEIGH MEDICAL CENTRE","SK15 2AE",13,6757,53.484571,-2.058251
"P89008","ASHTON MEDICAL GROUP","OL6 6EW",19,18362,53.489505,-2.088807
"P89010","MEDLOCK VALE MEDICAL PRACTICE","M43 7BW",17,8073,53.479062,-2.142502
"P89011","GORDON STREET MEDICAL CENTRE","OL6 6NE",10,4790,53.49291,-2.078053
"P89012","CLARENDON MEDICAL CENTRE","SK14 2AQ",11,7413,53.45264,-2.079951
"P89013","HATTERSLEY GROUP PRACTICE","SK14 3EH",10,5559,53.450228,-2.027426
"P89014","HAUGHTON THORNLEY MEDICAL CENTRES","SK14 1JY",11,13044,53.446746,-2.076116
"P89015","MILLGATE HEALTHCARE PARTNERSHIP","M34 2AJ",18,20028,53.455602,-2.118464
"P89016","DONNEYBROOK MEDICAL CENTRE","SK14 2AH",10,8763,53.452631,-2.080237
"P89018","DENTON MEDICAL PRACTICE","M34 3JE",12,8369,53.45991,-2.115509
"P89020","HT PRACTICE","OL7 0NW",14,8185,53.478305,-2.110496
"P89021","DUKINFIELD MEDICAL PRACTICE","SK16 4DB",16,10863,53.476538,-2.083416
"P89022","KING STREET MEDICAL CENTRE","SK16 4JZ",9,3758,53.478589,-2.093455
"P89023","ST. ANDREW'S HOUSE SURGERY","SK15 2AU",8,5255,53.484668,-2.059094
"P89025","TOWN HALL SURGERY","SK16 4LD",4,3035,53.478374,-2.092973
"P89026","GROSVENOR MEDICAL CENTRE","SK15 1RZ",8,6322,53.481452,-2.059105
"P89029","MARKET STREET MEDICAL PRACTICE","M43 6DE",6,5852,53.478949,-2.145634
"P89030","WEST END MEDICAL CENTRE","OL7 0LH",8,4179,53.48085,-2.107519
"P89602","THE SMITHY SURGERY","SK14 8LN",9,4170,53.461818,-1.994509
"P89609","STAMFORD HOUSE","OL6 9QH",5,4969,53.493647,-2.078642
"P89612","MOSSLEY MEDICAL PRACTICE","OL5 9AB",5,2251,53.51405,-2.04063
"P89613","WATERLOO MEDICAL CENTRE","OL7 9EJ",2,3226,53.498778,-2.103916
"P89618","PIKE MEDICAL PRACTICE","OL5 0HE",7,2240,53.517861,-2.045643
"Y02586","ASHTON GP SERVICE","OL6 7SR",6,3895,53.485827,-2.099981
"Y02663","DROYLSDEN MEDICAL PRACTICE","M43 7NP",8,4239,53.487166,-2.145664
"Y02713","GUIDE BRIDGE MEDICAL PRACTICE","M34 5HY",5,5174,53.471588,-2.113281
"Y02936","MILLBROOK MEDICAL PRACTICE","SK15 3BJ",4,3590,53.492265,-2.034281
"P91003","PARK MEDICAL PRACTICE","WA15 6QQ",12,6230,53.401899,-2.327843
"P91004","ALTRINCHAM MEDICAL PRACTICE","WA14 2DD",16,7917,53.38451,-2.351614
"P91006","URMSTON GROUP PRACTICE","M41 8AA",19,13302,53.452491,-2.394066
"P91007","TIMPERLEY HEALTH CENTRE (WESTWOOD)","WA15 6PH",2,4559,53.397228,-2.323566
"P91008","SHAY LANE MEDICAL CENTRE (KELMAN)","WA15 8NZ",9,6005,53.372189,-2.31556
"P91009","DAVYHULME MEDICAL CENTRE","M41 7WJ",16,11445,53.459483,-2.366782
"P91011","SHAY LANE MEDICAL CENTRE (PATEL)","WA15 8NZ",11,5936,53.372189,-2.31556
"P91012","PRIMROSE SURGERY","M41 7AB",14,7188,53.456159,-2.357311
"P91013","BOUNDARY HOUSE MEDICAL CENTRE","M33 2RH",16,11324,53.415635,-2.288936
"P91014","WASHWAY ROAD MEDICAL CENTRE","M33 7SS",22,16193,53.422516,-2.328288
"P91016","WEST TIMPERLEY MEDICAL CENTRE","WA14 5PF",12,9391,53.402699,-2.353117
"P91017","BODMIN ROAD HEALTH CENTRE","M33 5JH",10,8720,53.428123,-2.351718
"P91018","DELAMERE MEDICAL PRACTICE","M32 0DF",23,13924,53.450859,-2.30738
"P91019","PARTINGTON CENTRAL SURGERY","M31 4FY",8,3673,53.416781,-2.425016
"P91020","LIMELIGHT HEALTH AND WELLBEING HUB","M16 9NW",16,9385,53.461412,-2.261969
"P91021","FIRSWAY HEALTH CENTRE","M33 4BR",33,15323,53.421289,-2.355468
"P91026","PARTINGTON FAMILY PRACTICE","M31 4FL",8,5385,53.417784,-2.42617
"P91029","FLIXTON ROAD MEDICAL CENTRE","M41 5BG",7,12496,53.448267,-2.362664
"P91032","DERBYSHIRE ROAD SOUTH SURGERY","M33 3JP",4,1,NA,NA
"P91035","CONWAY ROAD MEDICAL PRACTICE","M33 2TB",17,12545,53.417873,-2.303561
"P91603","BARRINGTON MEDICAL CENTRE","WA14 1PF",10,6828,53.387437,-2.35263
"P91604","ST JOHNS MEDICAL CENTRE","WA14 1PF",26,17592,53.387437,-2.35263
"P91617","FAMILY SURGERY","WA14 1LL",2,2613,53.396194,-2.346055
"P91619","OLD TRAFFORD MEDICAL PRACTICE","M16 0LW",4,33,53.458091,-2.275654
"P91623","VILLAGE SURGERY","WA15 6PH",10,5346,53.397228,-2.323566
"P91625","GLOUCESTER HOUSE MEDICAL CENTRE","M41 9JS",3,37,NA,NA
"P91627","LOSTOCK MEDICAL CENTRE","M32 9PA",3,8249,53.45458,-2.328128
"P91629","NORTH TRAFFORD GROUP PRACTICE","M32 0PA",21,14978,53.453953,-2.299421
"P91631","RIDDINGS FAMILY HEALTH CENTRE","WA15 6BP",3,3147,53.404424,-2.331291
"P91633","GROVE MEDICAL PRACTICE","WA15 6PH",12,5467,53.397228,-2.323566
"N81007","HOLES LANE MEDICAL LTD.","WA1 4NE",15,10170,53.399828,-2.545107
"N81012","GUARDIAN STREET MED/CTR","WA5 1UD",22,10570,53.391901,-2.606297
"N81014","BROOKFIELD SURGERY","WA13 9DB",13,9196,53.382305,-2.48123
"N81020","PENKETH HEALTH CENTRE","WA5 2EY",20,13189,53.38656,-2.656033
"N81028","CAUSEWAY MEDICAL CENTRE","WA4 6QA",9,9013,53.380496,-2.589492
"N81036","SPRINGFIELDS MEDICAL CENTRE","WA1 1UG",10,7591,53.389274,-2.597523
"N81041","HELSBY STREET MED/CTR","WA1 3AW",11,8465,53.39498,-2.576324
"N81048","FEARNHEAD CROSS MED.CTR.","WA2 0HD",18,13824,53.411071,-2.559106
"N81056","FOLLY LANE MEDICAL CENTRE","WA5 0LU",23,10357,53.398135,-2.606866
"N81059","CULCHETH MEDICAL CENTRE","WA3 4DZ",16,12435,53.451645,-2.525547
"N81065","LATCHFORD MEDICAL CENTRE","WA4 1LJ",7,7416,53.381001,-2.561658
"N81075","STOCKTON HEATH MED.CENTRE","WA4 6HJ",24,16283,53.37195,-2.582161
"N81083","PARKVIEW MEDICAL CENTRE","WA2 8HE",5,5232,53.404594,-2.588307
"N81089","GREENBANK SURGERY","WA1 3RB",12,8434,53.396596,-2.571248
"N81097","DALLAM LANE MEDICAL CENTRE","WA2 7NG",5,2734,53.39281,-2.595513
"N81107","MANCHESTER ROAD SURGERY","WA1 3RB",8,3215,53.396596,-2.571248
"N81108","THE LAKESIDE SURGERY","WA13 0QE",7,10559,53.376873,-2.484115
"N81109","PADGATE MEDICAL CENTRE","WA2 0RX",14,6530,53.406509,-2.556188
"N81114","BIRCHWOOD MEDICAL CENTRE","WA3 7PJ",19,11182,53.41548,-2.5265
"N81122","WESTBROOK MEDICAL CENTRE","WA5 8UF",11,10703,53.408504,-2.632211
"N81623","STRETTON MEDICAL CENTRE","WA4 4NE",7,8197,53.339599,-2.576267
"N81628","THE ERIC MOORE PARTNERSHIP","WA2 7NJ",8,11442,53.393404,-2.59716
"N81637","COCKHEDGE MEDICAL CENTRE","WA1 2QQ",1,3020,53.390967,-2.589757
"N81645","4 SEASONS MEDICAL CENTRE","WA2 8HE",2,2631,53.404594,-2.588307
"Y01108","FAIRFIELD SURGERY","WA1 3RB",5,3537,53.396596,-2.571248
"Y04925","CHAPELFORD PRIMARY CARE CENTRE","WA5 3AL",7,7025,53.396728,-2.637376
"P81014","ORMSKIRK MEDICAL PRACTICE","L39 2BY",10,9008,53.568548,-2.884153
"P81039","MANOR PRIMARY CARE","WN8 6DS",3,5447,53.549695,-2.764643
"P81041","PARKGATE SURGERY","L39 4QR",7,9011,53.564772,-2.882743
"P81045","THE ELMS PRACTICE","L39 2BY",3,5009,53.568548,-2.884153
"P81084","HALL GREEN SURGERY","WN8 0AB",10,7574,53.540745,-2.741349
"P81096","PARBOLD SURGERY","WN8 7DN",10,7067,53.592733,-2.773141
"P81112","BEACON PRIMARY CARE","WN8 8LA",19,16933,53.550182,-2.806747
"P81136","DR A BISARYA","WN8 8LA",3,2716,53.550182,-2.806747
"P81138","BURSCOUGH FAMILY PRACTICE","L40 4LA",4,2579,53.602357,-2.840112
"P81201","ASHURST PRIMARY CARE","WN8 6QS",4,5586,53.563208,-2.772723
"P81208","EXCEL PRIMARY CARE","WN8 9BW",8,18173,53.538343,-2.758901
"P81646","LATHOM HOUSE SURGERY","L40 4LA",6,4292,53.602357,-2.840112
"P81674","STANLEY COURT SURGERY","L40 4LA",7,5767,53.602357,-2.840112
"P81695","AUGHTON SURGERY","L39 6SE",9,6054,53.543638,-2.902223
"P81710","TARLETON GROUP PRACTICE","PR4 6UJ",14,9757,53.679267,-2.832997
"P92001","MEDICENTRE","WN4 9AZ",5,5608,53.487546,-2.639264
"P92002","BRAITHWAITE RD SURGERY","WA3 2HY",10,5261,53.477412,-2.574985
"P92003","THE DICCONSON GROUP PRACTICE","WN6 7LB",12,9050,53.549467,-2.644891
"P92004","DR TUN & PARTNERS","WN2 3HQ",10,7889,53.532102,-2.583571
"P92005","ZAMAN","WN3 5HL",5,4153,53.529393,-2.643772
"P92006","DR AHMAD & PTNRS","WN2 5NG",8,6121,53.522279,-2.595925
"P92007","OLD HENRY STREET MED CTR","WN7 2PG",15,6900,53.493535,-2.511926
"P92008","BRADSHAW MEDICAL CENTRE","WN5 0AB",9,8770,53.537889,-2.688594
"P92010","BEECH HILL MEDICAL PRACTICE","WN6 7PD",15,12451,53.555654,-2.644352
"P92011","SULLIVAN WAY SURGERY","WN1 3TB",14,7768,53.549154,-2.622534
"P92012","HIGH STREET MEDICAL CENTRE","WA3 3GS",10,4410,53.47988,-2.595495
"P92014","STANDISH MEDICAL PRACTICE","WN6 0HD",23,13123,53.584471,-2.660453
"P92015","ASPULL SURGERY","WN2 1XH",8,5576,53.569599,-2.586036
"P92016","PENNYGATE MEDICAL CENTRE","WN2 2QG",24,18037,53.540002,-2.576271
"P92017","SHEVINGTON SURGERY","WN6 8ET",12,13008,53.574041,-2.69942
"P92019","PEMBERTON SURGERY","WN5 9QX",10,10283,53.538479,-2.669697
"P92020","SIVAKUMAR & PARTNER","M29 7BS",6,4658,53.500102,-2.455594
"P92021","NEWTOWN MEDICAL PRACTICE","WN5 9QX",8,6087,53.538479,-2.669697
"P92023","BROOKMILL MEDICAL CENTRE","WN7 2RB",9,9026,53.496441,-2.50958
"P92024","KUMAR FAMILY PRACTICE","WN3 5HL",9,4650,53.529393,-2.643772
"P92026","LONGSHOOT MEDICAL PRACTICE","WN1 3NH",11,7695,53.54967,-2.620127
"P92028","ELLIOTT STREET SURGERY","M29 8FL",7,4962,53.514178,-2.469316
"P92029","WESTLEIGH MEDICAL PRACTICE","WN7 5JE",7,4493,53.510851,-2.526024
"P92030","DR SEABROOK","WN1 2AZ",3,4520,53.55143,-2.632499
"P92031","PLATT HOUSE SURGERY","WN2 5NG",3,3685,53.522279,-2.595925
"P92033","THE SURGERY, TYLDESLEY","M29 8AL",4,4688,53.514626,-2.469683
"P92034","BRYN CROSS SURGERY","WN4 0AR",8,5567,53.500897,-2.64744
"P92038","SAXENA L","WN3 6JN",3,3167,53.521291,-2.668958
"P92041","SSP HEALTH LIMITED ASHTON MEDICAL CENTRE","WN4 9SU",10,8153,53.494792,-2.642855
"P92042","DR KK CHAN & PARTNERS","M46 9DE",10,9745,53.524185,-2.489022
"P92602","FOXLEIGH FAMILY SURGERY","WN7 2PE",5,2275,53.493519,-2.511927
"P92605","BOOTHSTOWN MEDICAL CENTRE","M28 1BZ",8,6393,53.50477,-2.422973
"P92607","GRASMERE SURGERY","WN7 1HR",11,7903,53.503236,-2.511455
"P92615","THE AVENUE SURGERY","WN7 1HR",2,4891,53.503236,-2.511455
"P92616","HIGHER INCE SURGERY","WN2 2DJ",5,3347,53.543362,-2.604008
"P92620","INCE SURGERY","WN3 4NW",7,4251,53.534922,-2.614585
"P92621","PREMIER HEALTH TEAM","WN7 2PE",7,3518,53.493519,-2.511927
"P92626","MEADOWVIEW SURGERY","M46 0LE",6,5558,53.527489,-2.500811
"P92630","GOLBORNE SURGERY","WA3 3GS",6,2638,53.47988,-2.595495
"P92633","BEE FOLD MEDICAL CENTRE","M46 0BD",3,2611,53.521372,-2.499759
"P92634","MESNES VIEW SURGERY","WN1 1ST",5,4373,53.550807,-2.633048
"P92635","DR VASANTH","M46 0LE",3,2162,53.527489,-2.500811
"P92637","ASTLEY GENERAL PRACTICE","M29 7BY",3,3537,53.500415,-2.458266
"P92639","SHAHBAZI SS","WA3 3GS",2,2945,53.47988,-2.595495
"P92642","MARUS BRIDGE PRACTICE","WN3 5HL",7,5369,53.529393,-2.643772
"P92646","DR VARDHAN'S SURGERY","M29 7HG",4,3373,53.500769,-2.447913
"P92647","SOUTH WIGAN MEDICAL PRACTICE","WN3 5HL",11,3047,53.529393,-2.643772
"P92648","SLAG LANE MC","WA3 2EZ",3,3935,53.478569,-2.575634
"P92651","LOWTON & PLATT BRIDGE SURGERY","WA3 2AQ",3,5015,53.471912,-2.561186
"P92653","SHAKESPEARE SURGERY","WN3 5HL",4,3162,53.529393,-2.643772
"Y00050","LILFORD & PENNINGTON PARK SURGERY","WN7 2PE",7,6579,53.493519,-2.511927
"Y02274","RIVINGTON WAY SURGERY","WN3 4NW",7,3741,53.534922,-2.614585
"Y02321","POPLAR STREET SURGERY","M29 8AX",13,5487,53.516715,-2.468999
"Y02322","LEIGH FAMILY PRACTICE","WN7 2PE",4,8399,53.493519,-2.511927
"Y02378","BRYN STREET SURGERY","WN4 9AZ",11,6252,53.487546,-2.639264
"Y02885","MARSH GREEN MEDICAL PRACTICE","WN5 0QL",7,3236,53.549233,-2.6673
"Y02886","LEIGH SPORTS VILLAGE","WN7 4JY",7,3821,53.489454,-2.531079
"P81006","GARSTANG MEDICAL PRACTICE","PR3 1PB",22,19702,53.897295,-2.783103
"P81031","POPLAR HOUSE SURGERY","FY8 2EP",13,6918,53.754721,-3.03076
"P81037","ANSDELL MEDICAL CENTRE","FY8 4GW",17,9996,53.747298,-2.997657
"P81059","GREAT ECCLESTON HLTH CTR","PR3 0ZA",11,7749,53.855172,-2.867913
"P81077","HOLLAND HOUSE SURGERY","FY8 5DZ",18,11072,53.73956,-2.95037
"P81079","THE THORNTON PRACTICE","FY5 2TZ",17,12813,53.876825,-3.014553
"P81086","BROADWAY MEDICAL CENTRE","FY7 8GU",10,10215,53.912667,-3.033843
"P81087","THE OVER-WYRE MED.CTR.","FY6 0FA",10,11428,53.928203,-2.976492
"P81089","THE MOUNT VIEW PRACTICE","FY7 6HP",12,12063,53.920956,-3.010416
"P81128","KIRKHAM HEALTH CENTRE","PR4 2DL",9,9582,53.781939,-2.878541
"P81129","ASH TREE HOUSE SURGERY","PR4 2SE",13,11291,53.783476,-2.871258
"P81133","THE VILLAGE PRACTICE","FY5 2TZ",11,8618,53.876825,-3.014553
"P81149","LOCKWOOD GP SURGERY","FY6 7PU",5,8177,53.850947,-2.989833
"P81150","PARCLIFFE MEDICAL CENTRE","FY8 2EP",11,11875,53.754721,-3.03076
"P81157","FERNBANK SURGERY","FY8 5DZ",12,10901,53.73956,-2.95037
"P81191","QUEENSWAY MEDICAL CENTRE","FY6 7ST",13,9275,53.846569,-2.995384
"P81668","FLEETWOOD SURGERY","FY7 8GU",6,6333,53.912667,-3.033843
"P81737","THE OLD LINKS SURGERY","FY8 2LY",2,1868,53.762695,-3.030913
"P81742","BEECHWOOD SURGERY","FY5 5HH",2,2363,53.871568,-3.009057
"C85001","GOLDTHORPE MEDICAL CENTRE PMS PRACTICE","S63 9EH",9,4344,53.52812,-1.310932
"C85003","ASHVILLE MEDICAL CENTRE PMS PRACTICE","S70 3NE",16,12437,53.543072,-1.4569
"C85004","PENISTONE GROUP PMS PRACTICE","S36 6BR",29,17152,53.523565,-1.630732
"C85005","ROYSTON GROUP PRACTICE","S71 4QW",9,7900,53.600005,-1.451018
"C85006","WOODLAND DRIVE MEDICAL CENTRE","S70 6QW",10,5060,53.5478,-1.506646
"C85007","THE DOVE VALLEY PMS PRACTICE","S70 5NZ",14,10579,53.529165,-1.460187
"C85008","WALDERSLADE SURGERY","S74 9AF",24,12963,53.499821,-1.43772
"C85009","THE KAKOTY PRACTICE","S70 4NW",11,6658,53.5464,-1.473444
"C85010","HILL BROW SURGERY PMS PRACTICE","S75 6FH",23,17175,53.587152,-1.509011
"C85013","WOMBWELL GMS PRACTICE","S73 0AJ",11,10744,53.522177,-1.395719
"C85014","THE ROSE TREE PMS PRACTICE","S72 8SU",11,9328,53.577865,-1.416845
"C85016","GARLAND HOUSE SURGERY","S73 9JX",16,11759,53.533823,-1.370689
"C85017","BURLEIGH MEDICAL CENTRE","S70 1XY",9,11398,53.549879,-1.477568
"C85018","GRIMETHORPE SURGERY","S72 7NZ",8,7190,53.573614,-1.378978
"C85019","THE GROVE MEDICAL PRACTICE","S70 1QE",9,5347,53.547084,-1.485977
"C85020","HUDDERSFIELD ROAD SURGERY","S70 2LT",21,13410,53.558165,-1.485631
"C85022","HOYLAND MEDICAL PRACTICE","S74 9AF",20,12394,53.499821,-1.43772
"C85023","HOLLYGREEN PRACTICE","S63 9EH",18,11123,53.52812,-1.310932
"C85024","HIGH STREET PRACTICE","S71 4RF",3,6312,53.597926,-1.458313
"C85026","APOLLO COURT MEDICAL CENTRE","S75 3RF",11,5020,53.542364,-1.524816
"C85028","LUNDWOOD MEDICAL CENTRE PMS PRACTICE","S71 5PN",6,4413,53.557711,-1.438538
"C85030","WOMBWELL MEDICAL CENTRE PRACTICE","S73 0DD",12,9891,53.521897,-1.39892
"C85033","VICTORIA MEDICAL CENTRE PMS PRACTICE","S75 2AE",9,11669,53.556704,-1.490827
"C85614","DARTON HEALTH CENTRE PRACTICE","S75 5HQ",1,3597,53.586094,-1.530009
"C85619","ST GEORGE'S MEDICAL CENTRE PMS PRACTICE","S71 1RY",8,7759,53.57906,-1.482825
"C85622","MONK BRETTON HEALTH CENTRE PRACTICE","S71 2EQ",5,2232,53.566608,-1.451888
"C85623","KINGSWELL SURGERY PMS PRACTICE","S36 6DY",10,4262,53.525777,-1.628194
"Y00411","DEARNE VALLEY GROUP PRACTICE","S63 0LT",15,10936,53.546377,-1.309894
"Y04809","LAKESIDE SURGERY","S63 9EH",5,2316,53.52812,-1.310932
"Y05248","BRIERLEY MEDICAL CENTRE","S72 9HZ",2,3136,53.594188,-1.382484
"Y05363","BHF HIGHGATE SURGERY","S72 7NZ",1,3219,53.573614,-1.378978
"Y05364","BHF LUNDWOOD SURGERY","S71 5PN",5,3380,53.557711,-1.438538
"C84001","LARWOOD SURGERY","S81 0HH",41,31358,53.319088,-1.106284
"C84008","TUXFORD MEDICAL CENTRE","NG22 0HT",9,5118,53.231324,-0.890883
"C84013","KINGFISHER FAMILY PRACTICE","DN22 7XF",19,14187,53.325451,-0.950634
"C84024","NEWGATE MEDICAL GROUP","S80 1HP",28,30251,53.301065,-1.123405
"C84035","CROWN HOUSE SURGERY","DN22 7XF",14,11767,53.325451,-0.950634
"C84094","RIVERSIDE HEALTH CENTRE","DN22 6FB",18,19116,53.324335,-0.943319
"C84101","BAWTRY AND BLYTH MEDICAL","DN10 6RQ",10,3579,53.431872,-1.01945
"C84692","NORTH LEVERTON SURGERY","DN22 0AB",5,2706,53.332038,-0.822245
"Y05346","WESTWOOD PRIMARY CARE CENTRE","S80 2TR",28,3454,53.296468,-1.110806
"B84001","STATION ROAD SURGERY","HX6 3AB",13,10158,53.707126,-1.910781
"B84003","RYDINGS HALL SURGERY","HD6 1AT",10,8200,53.703064,-1.782549
"B84004","HEBDEN BRIDGE GROUP PRACTICE","HX7 7BZ",21,18654,53.744036,-2.010942
"B84005","ROSEGARTH SURGERY","HX1 2HB",6,10390,53.714895,-1.871551
"B84006","TODMORDEN GROUP PRACTICE","OL14 5RN",21,13483,53.713651,-2.092159
"B84007","BRIG ROYD SURGERY","HX6 4BN",17,10442,53.675586,-1.939472
"B84008","THE NORTHOLME PRACTICE","HX3 8AF",11,15513,53.725939,-1.808848
"B84009","STAINLAND ROAD MEDICAL CENTRE","HX4 8BD",16,11420,53.685862,-1.857377
"B84010","KEIGHLEY ROAD SURGERY","HX2 9LL",11,10623,53.754239,-1.893907
"B84011","CHURCH LANE SURGERY","HD6 1AT",11,11497,53.703064,-1.782549
"B84012","SPRING HALL GROUP PRACTICE","HX1 4JG",25,19580,53.721064,-1.892899
"B84013","PLANE TREES GROUP PRACTICE","HX2 0QL",11,8810,53.730448,-1.894437
"B84014","RASTRICK HEALTH CENTRE","HD6 3NA",5,4821,53.688817,-1.792177
"B84016","BANKFIELD SURGERY","HX5 9BA",11,10604,53.686331,-1.835146
"B84019","THE BOULEVARD MEDICAL PRACTICE","HX1 2ES",9,15430,53.717279,-1.86859
"B84021","KING CROSS PRACTICE","HX1 3LW",12,8601,53.715308,-1.880201
"B84612","LISTER LANE SURGERY","HX1 5AX",9,8499,53.722573,-1.865496
"B84613","BEECHWOOD MEDICAL CENTRE","HX2 8AL",10,9376,53.743244,-1.881168
"B84618","CARITAS GROUP PRACTICE","HX3 6EL",19,8823,53.730205,-1.866942
"B84623","LONGROYDE SURGERY","HD6 3HT",8,4545,53.694045,-1.790728
"Y02572","CALDER COMMUNITY PRACTICE","OL14 5RN",3,2755,53.713651,-2.092159
"Y02645","CALDERDALE SAFE HAVEN SERVICE","HD1 9RX",1,5,53.648438,-1.781545
"C86001","GREAT NORTH MEDICAL GROUP","DN6 8AG",20,16590,53.58337,-1.186052
"C86002","THE RANSOME PRACTICE","DN5 0JX",13,8222,53.551038,-1.14853
"C86003","HATFIELD HEALTH CENTRE","DN7 6JH",10,9511,53.574793,-1.008445
"C86005","MEXBOROUGH HEALTH CENTRE","S64 0BY",10,5014,53.494237,-1.279795
"C86006","REGENT SQUARE GROUP PRACTICE","DN1 2DS",9,10133,53.522191,-1.125983
"C86007","THE BURNS PRACTICE","DN1 2EG",17,14407,53.520689,-1.123015
"C86009","THE MAYFLOWER MEDICAL PRACTICE","DN10 6RQ",15,7701,53.431872,-1.01945
"C86011","MOUNT GROUP PRACTICE","DN1 2JP",18,13061,53.525895,-1.122346
"C86012","THE OAKWOOD SURGERY","DN4 6BU",9,5646,53.506609,-1.073937
"C86013","THE TICKHILL & COLLIERY MEDICAL PRACTICE","DN11 9NA",15,8694,53.433045,-1.110773
"C86015","THE ROSSINGTON PRACTICE","DN11 0LP",10,7972,53.475939,-1.075072
"C86016","THE LAKESIDE PRACTICE","DN6 0HZ",12,8410,53.615375,-1.149368
"C86017","KINGTHORNE GROUP PRACTICE","DN1 2EU",19,12849,53.525937,-1.123235
"C86018","NORTHFIELD SURGERY","DN8 4BQ",10,9931,53.613648,-0.966348
"C86019","THE SCOTT PRACTICE","DN4 0TG",24,15149,53.507078,-1.151432
"C86020","ST. JOHNS GROUP PRACTICE","DN4 0TH",15,8574,53.507052,-1.151942
"C86021","WHITE HOUSE FARM MEDICAL CENTRE","DN3 3AH",12,6030,53.53643,-1.05856
"C86022","THE SANDRINGHAM PRACTICE","DN2 5JH",6,10737,53.533949,-1.098266
"C86023","DON VALLEY HEALTHCARE","DN5 0AT",18,13580,53.546118,-1.146818
"C86024","CONISBROUGH GROUP PRACTICE","DN12 3JW",14,11723,NA,NA
"C86025","FRANCES STREET MEDICAL CENTRE","DN1 1JS",7,7142,53.524012,-1.13041
"C86026","EDLINGTON HEALTH CENTRE PRACTICE","DN12 1JD",4,4966,53.480846,-1.193951
"C86029","ST VINCENT MEDICAL CENTRE","DN1 2ET",20,14534,53.525476,-1.124029
"C86032","SCAWSBY HEALTH CENTRE PRACTICE","DN5 8QE",5,5892,53.536764,-1.167662
"C86033","THE NAYAR PRACTICE","DN12 1JD",6,5148,53.480846,-1.193951
"C86034","THE NEW SURGERY","S64 0DB",7,7540,53.494642,-1.281086
"C86037","FIELD ROAD SURGERY","DN7 5AF",9,9716,53.600285,-1.030051
"C86038","PETERSGATE MEDICAL CENTRE","DN5 9PQ",8,9073,53.543902,-1.165168
"C86605","ASKERN MEDICAL PRACTICE","DN6 0HZ",5,7831,53.615375,-1.149368
"C86606","BARNBURGH SURGERY","DN5 7ET",6,2547,53.522372,-1.269604
"C86609","ASA MEDICAL GROUP","DN3 2DB",12,9855,53.539709,-1.061822
"C86611","DUNSVILLE MEDICAL CENTRE","DN7 4BY",8,5847,53.562539,-1.02783
"C86614","THORNE MOOR MEDICAL PRACTICE","DN8 4BQ",7,9497,53.613648,-0.966348
"C86616","DENABY MEDICAL PRACTICE","DN12 4AB",4,3575,53.490666,-1.245792
"C86621","WEST END CLINIC","DN11 0PQ",10,4632,53.479539,-1.082409
"C86625","CONISBROUGH MEDICAL PRACTICE","DN12 3JW",5,1662,NA,NA
"C86626","PARK VIEW SURGERY","DN5 8DA",3,2398,53.521574,-1.161562
"Y05167","THE FLYING SCOTSMAN HEALTH CENTRE","DN1 3AP",12,11508,53.520465,-1.137119
"B81004","EASTGATE MEDICAL GROUP, HORNSEA","HU18 1LP",14,12450,53.915277,-0.16825
"B81006","HUMBER PRIMARY CARE","YO15 2QW",17,8386,54.085947,-0.186823
"B81009","MARKET WEIGHTON GROUP PRACTICE","YO43 3FF",22,9334,53.864903,-0.674786
"B81010","HESSLE GRANGE MEDICAL PRACTICE","HU13 9LZ",9,12425,53.723082,-0.429474
"B81013","MONTAGUE MEDICAL PRACTICE","DN14 6JD",13,8807,53.707031,-0.872899
"B81014","PRACTICE TWO","YO16 4LZ",7,6766,54.084715,-0.201064
"B81024","WILLERBY AND SWANLAND SURGERY","HU10 6BP",15,8635,53.75838,-0.447271
"B81025","HOLDERNESS HEALTH","HU19 2PZ",36,34906,53.728739,0.034928
"B81029","THE SNAITH AND RAWCLIFFE MEDICAL GROUP","DN14 9DY",13,11155,53.689286,-1.024414
"B81034","LEVEN & BEEFORD MEDICAL PRACTICE","HU17 5NL",13,11284,53.890915,-0.312863
"B81037","THE PARK SURGERY","YO25 6EB",25,15034,54.009291,-0.439379
"B81041","GILBERDYKE HEALTH CENTRE","HU15 2UL",11,6128,53.754518,-0.731667
"B81042","MANOR ROAD SURGERY","HU17 7BZ",16,13029,53.845274,-0.432565
"B81051","OLD FIRE STATION SURGERY","HU17 8JW",15,9993,53.840868,-0.435177
"B81060","FIELD HOUSE SURGERY, BRIDLINGTON","YO15 2AT",9,6216,54.0866,-0.193186
"B81061","THE RIDINGS MEDICAL GROUP","HU15 2JG",50,28297,53.765218,-0.622066
"B81068","BARTHOLOMEW MEDICAL GROUP","DN14 6RU",12,17254,53.714839,-0.875479
"B81069","DRS REDDY AND NUNN","YO16 4LZ",12,10089,54.084715,-0.201064
"B81070","PRACTICE ONE","YO16 4LZ",5,6122,54.084715,-0.201064
"B81082","NORTH BEVERLEY MEDICAL CENTRE","HU17 7JY",13,6610,53.857996,-0.439008
"B81088","HOWDEN MEDICAL PRACTICE","DN14 7DD",19,7595,53.744175,-0.869404
"B81092","THE MEDICAL CENTRE, DRIFFIELD","YO25 6UH",13,11056,54.006257,-0.439676
"B81100","DR AC MILNER","HU10 6QJ",3,4197,53.748495,-0.434335
"B81101","GREENGATES MEDICAL GROUP","HU17 0HB",24,21780,53.844343,-0.418494
"B81619","PARK VIEW SURGERY","HU13 9AJ",3,3744,53.72979,-0.435833
"B81653","KING STREET MEDICAL CENTRE","HU16 5QJ",15,7345,53.784198,-0.413744
"B81658","PEELER HOUSE SURGERY","HU13 0RG",6,3008,53.722531,-0.438851
"B81666","DR MITCHELL","HU14 3DB",2,1965,53.72075,-0.503581
"Y02656","THE WOLDS VIEW PRIMARY CARE CENTRE","YO16 4QP",5,3998,54.086552,-0.215754
"B81002","CHP LTD - BRANSHOLME","HU7 4DW",4,3134,53.787408,-0.32136
"B81008","HULL FAMILY PRACTICE","HU9 2LJ",19,29894,53.754966,-0.30901
"B81011","KINGSTON HEALTH (HULL)","HU3 5QE",9,9774,53.742011,-0.384658
"B81017","THE QUAYS MEDICAL PRACTICE","HU3 1TY",18,16898,53.756137,-0.349365
"B81018","ORCHARD 2000 GROUP","HU6 9BS",5,9138,53.786372,-0.370022
"B81020","THE SUTTON MANOR SURGERY","HU7 4PT",15,7371,53.785759,-0.315294
"B81027","ST ANDREWS SURGERY","HU3 4BB",13,8242,53.735566,-0.361958
"B81032","WILBERFORCE SURGERY","HU1 3SA",7,4513,53.746221,-0.342095
"B81035","THE AVENUES MEDICAL CENTRE","HU5 3TJ",7,7110,53.755632,-0.374215
"B81038","THE OAKS MEDICAL CENTRE","HU4 6RF",10,7555,53.731939,-0.395095
"B81040","DR JAD WEIR & PARTNERS","HU9 5HH",19,14633,53.755985,-0.265989
"B81046","THE BRIDGE GROUP PRACTICE","HU6 9BX",12,8312,53.787555,-0.375759
"B81047","WOLSELEY MEDICAL CENTRE","HU3 1DS",14,7426,53.746195,-0.355069
"B81048","MODALITY PARTNERSHIP (HULL)","HU5 2NT",55,56910,53.764987,-0.356255
"B81052","PRINCES MEDICAL CENTRE","HU5 3QA",8,7182,53.753343,-0.359925
"B81054","CLIFTON HOUSE MEDICAL CENTRE","HU5 2ST",8,8533,53.759495,-0.349704
"B81058","SYDENHAM GROUP PRACTICE","HU3 4BB",20,8419,53.735566,-0.361958
"B81074","CITY HEALTH PRACTICE LTD","HU9 2LR",11,6530,53.756542,-0.306816
"B81075","HASTINGS MEDICAL CENTRE","HU5 5BE",11,3796,53.749841,-0.393427
"B81085","BURNBRAE MEDICAL PRACTICE","HU8 8JS",28,4841,53.760383,-0.303885
"B81095","CHP LTD - FIELD VIEW","HU6 7HP",3,3778,53.780969,-0.357512
"B81097","DELTA HEALTHCARE","HU9 3JA",4,2924,53.764281,-0.292835
"B81104","CAMPUS HEALTH CENTRE","HU5 2EG",6,7509,53.768793,-0.368366
"B81112","JAMES ALEXANDER FAMILY PRACTICE","HU7 4DW",17,8509,53.787408,-0.32136
"B81119","GOODHEART SURGERY","HU7 4DW",7,6661,53.787408,-0.32136
"B81616","DR GT HENDOW'S PRACTICE","HU7 4DW",2,2725,53.787408,-0.32136
"B81631","DRS RAUT AND THOUFEEQ","HU7 5DD",2,4648,53.805594,-0.326542
"B81635","LAURBEL SURGERY","HU11 4AR",2,3442,53.778463,-0.257019
"B81645","EAST PARK PRACTICE","HU9 3JA",3,4080,53.764281,-0.292835
"B81675","NEWINGTON SURGERY","HU3 6BX",28,12388,53.741949,-0.37811
"Y02344","NORTHPOINT","HU7 4DW",13,3551,53.787408,-0.32136
"Y02747","HAXBY GROUP HULL","HU7 3JQ",43,15758,53.802041,-0.3529
"B81003","BEACON MEDICAL","DN35 8EB",11,12223,53.557,-0.037662
"B81012","DR AP KUMAR","DN31 3AE",6,3350,53.573306,-0.058663
"B81015","CLEE MEDICAL CENTRE","DN35 7XE",18,14080,53.566223,-0.041433
"B81016","PELHAM MEDICAL GROUP","DN31 1QZ",15,9617,53.563205,-0.091675
"B81023","THE CHANTRY HEALTH GROUP","DN31 1QZ",3,5964,53.563205,-0.091675
"B81030","SLC MEDICAL GROUP","DN33 3JF",20,13361,53.536399,-0.094601
"B81031","WOODFIELD MEDICAL","DN34 4GB",18,12208,53.564436,-0.112579
"B81039","THE ROXTON PRACTICE","DN40 1JW",42,32915,53.618771,-0.205325
"B81055","THE LYNTON PRACTICE","DN35 0LN",4,4343,53.548564,-0.034732
"B81077","WOODFORD MEDICAL PRACTICE","DN34 4GB",5,9769,53.564436,-0.112579
"B81087","BIRKWOOD MEDICAL CENTRE","DN34 5DX",5,8427,53.557415,-0.105207
"B81091","LITTLEFIELD SURGERY","DN34 4GB",7,5457,53.564436,-0.112579
"B81108","DR A SINHA","DN31 2BH",5,4557,53.567843,-0.108808
"B81603","ROXTON AT WEELSBY VIEW","DN32 9SW",16,8,53.557292,-0.066189
"B81606","STIRLING MEDICAL CENTRE (MATHEWS)","DN31 3AE",3,4253,53.573306,-0.058663
"B81620","BISWAS B","DN35 7DL",1,2258,53.568511,-0.047233
"B81642","DR OZ QURESHI","DN35 0LN",3,4154,53.548564,-0.034732
"B81655","GREENLANDS SURGERY","DN31 3AE",5,2895,53.573306,-0.058663
"B81656","RAJ MEDICAL CENTRE","DN34 5LP",2,6690,53.550655,-0.113968
"B81663","CORE CARE FAMILY PRACTICE","DN31 2BH",4,2612,53.567843,-0.108808
"B81664","HUMBERVIEW SURGERY","DN31 3AE",9,1934,53.573306,-0.058663
"B81665","HEALING PARTNERSHIP","DN41 7JB",4,2417,53.577708,-0.171864
"B81697","DR P SURESH BABU","DN32 9EF",1,2742,53.564095,-0.069241
"Y01948","OPEN DOOR","DN32 7DL",5,2090,53.572249,-0.068703
"Y02684","QUAYSIDE MEDICAL CENTRE","DN32 7DL",7,3129,53.572249,-0.068703
"B81005","THE CENTRAL SURGERY BARTON","DN18 5ER",21,17087,53.684236,-0.439445
"B81007","WINTERTON MEDICAL PRACTICE","DN15 9TA",20,9724,53.652511,-0.606876
"B81022","CAMBRIDGE AVENUE MEDICAL CENTRE","DN16 3LG",21,13493,53.558363,-0.65185
"B81026","ANCORA MEDICAL PRACTICE","DN16 2AB",21,20844,53.570914,-0.655287
"B81043","SOUTH AXHOLME PRACTICE","DN9 1EP",18,14904,53.525913,-0.821916
"B81045","ASHBY TURN PRIMARY CARE PARTNERS","DN16 2UT",12,12666,53.565988,-0.654178
"B81063","BRIDGE STREET SURGERY","DN20 8NT",12,6673,53.551684,-0.495121
"B81064","CHURCH LANE MEDICAL CENTRE","DN15 7AN",11,9289,53.585459,-0.661774
"B81065","TRENT VIEW MEDICAL PRACTICE","DN17 3DR",16,11395,53.587765,-0.74094
"B81090","THE OSWALD ROAD MEDICAL SURGERY","DN15 7PG",4,4500,53.588137,-0.6534
"B81099","THE KIRTON LINDSEY AND SCOTTER SURGERY","DN21 4PQ",12,10559,53.474089,-0.594073
"B81109","RIVERSIDE SURGERY","DN20 8AS",18,12604,53.553584,-0.491823
"B81113","CEDAR MEDICAL PRACTICE","DN16 2AB",8,8074,53.570914,-0.655287
"B81118","WEST COMMON LANE TEACHING PRACTICE","DN17 1YH",8,7988,53.574731,-0.682441
"B81617","THE BIRCHES MEDICAL PRACTICE","DN15 6HX",12,8986,53.592443,-0.651828
"B81628","BARNETBY MEDICAL CENTRE","DN38 6HZ",3,3008,53.57413,-0.403585
"B81647","WEST TOWN SURGERY","DN18 5PU",4,2981,53.685751,-0.443862
"B81648","THE KILLINGHOLME SURGERY","DN40 3EL",2,1538,53.629908,-0.260335
"Y02787","THE OAK TREE MEDICAL PRACTICE","DN15 6HX",7,7180,53.592443,-0.651828
"C87002","DINNINGTON GROUP PRACTICE","S25 2EZ",25,20624,53.369572,-1.207322
"C87003","WOODSTOCK BOWER GROUP PRACTICE","S61 1AH",17,11056,53.431383,-1.378072
"C87004","KIVETON PARK MEDICAL PRACTICE","S26 6QU",19,11646,53.339284,-1.270122
"C87005","ST ANN'S MEDICAL CENTRE","S65 1DA",30,17943,53.429997,-1.352431
"C87006","THE MAGNA GROUP PRACTICE","S64 5UP",20,13882,53.47696,-1.307088
"C87007","STAG MEDICAL CENTRE","S60 4JW",12,11624,53.418208,-1.319132
"C87008","SWALLOWNEST HEALTH CENTRE","S26 4WD",27,16388,53.362997,-1.317097
"C87009","BRINSWORTH MEDICAL CENTRE","S60 5ND",13,10320,53.407837,-1.380687
"C87010","YORK ROAD SURGERY","S65 1PW",3,4466,53.435119,-1.348607
"C87012","BROOM LANE MEDICAL CENTRE","S60 3EW",16,14816,53.417383,-1.332311
"C87013","PARKGATE MEDICAL CENTRE","S62 6AW",8,6378,53.455454,-1.342798
"C87014","TREETON MEDICAL CENTRE","S60 5PW",6,7463,53.384994,-1.354708
"C87015","WICKERSLEY HEALTH CENTRE","S66 2JQ",11,6883,53.422309,-1.279671
"C87016","MORTHEN ROAD SURGERY","S66 1EU",14,12146,53.420688,-1.280737
"C87017","CLIFTON MEDICAL CENTRE","S65 1DA",17,12941,53.429997,-1.352431
"C87018","HIGH STREET SURGERY","S62 6LW",13,7966,53.459623,-1.344029
"C87020","GREENSIDE SURGERY","S61 4PT",9,5457,53.453229,-1.370179
"C87022","VILLAGE SURGERY","S66 9LP",12,8104,53.39421,-1.251934
"C87024","RAWMARSH HEALTH CENTRE","S62 6AE",6,3991,53.457255,-1.338239
"C87029","MARKET SURGERY","S63 7RA",17,11640,53.502635,-1.345958
"C87030","CROWN STREET SURGERY","S64 8NB",9,9302,53.487709,-1.314614
"C87031","DR RAOLU'S PRACTICE","S66 8JE",4,3375,53.423549,-1.204348
"C87603","GREASBROUGH MEDICAL CENTRE","S61 4RB",3,3616,53.452698,-1.371649
"C87604","THORPE HESLEY SURGERY","S61 2QP",4,5607,53.458647,-1.432602
"C87606","QUEEN'S MEDICAL CENTRE","S66 7NA",1,1354,53.422268,-1.196833
"C87608","SHAKESPEARE ROAD SURGERY","S65 1QY",5,5840,53.43916,-1.341498
"C87616","BLYTH ROAD MEDICAL CENTRE","S66 8JD",4,5821,53.422231,-1.20365
"C87620","MANOR FIELD SURGERY","S66 8JE",9,6572,53.423549,-1.204348
"C87622","GATEWAY PRIMARY CARE","S65 1DA",10,9266,53.429997,-1.352431
"C88005","WALKLEY HOUSE & STANNINGTON M.C","S6 3TN",20,12427,53.392271,-1.502249
"C88006","NORFOLK PARK HEALTH CENTRE","S2 3TA",8,5245,53.363664,-1.447867
"C88007","PORTER BROOK MEDICAL CENTRE","S11 8HN",33,29009,53.370493,-1.483595
"C88008","FORGE HEALTH GROUP","S3 9DL",39,15190,53.399239,-1.46532
"C88009","FOXHILL MEDICAL CENTRE","S6 1GA",20,5938,53.429911,-1.501327
"C88010","CHAPELGREEN PRACTICE","S35 1RN",26,14669,53.459173,-1.479041
"C88011","BUCHANAN ROAD SURGERY","S5 8AL",10,4640,53.422895,-1.470997
"C88014","NORWOOD MEDICAL CENTRE","S5 7HD",12,8233,53.413102,-1.46987
"C88015","MEADOWGREEN HEALTH CENTRE","S8 8DJ",27,18770,53.323287,-1.463897
"C88016","CARTERKNOWLE & DORE MEDICAL PRACTICE","S7 2DW",20,12999,53.353454,-1.488728
"C88018","TRAMWAYS MEDICAL CENTRE (O'CONNELL)","S6 4JQ",13,8443,53.402044,-1.503023
"C88019","GLEADLESS MEDICAL CENTRE","S14 1PQ",17,8721,53.356551,-1.451325
"C88020","WHITE HOUSE SURGERY","S2 1SL",14,7090,53.368488,-1.420859
"C88021","FAR LANE MEDICAL CENTRE","S6 4FA",11,7201,53.409335,-1.507692
"C88022","STONECROFT MEDICAL CENTRE","S12 2LJ",8,4341,53.345562,-1.425314
"C88023","SOTHALL & BEIGHTON HEALTH CENTRES","S20 1HQ",20,9961,53.337895,-1.340221
"C88025","BIRLEY HEALTH CENTRE","S12 3BP",15,8677,53.340317,-1.396985
"C88026","SLOAN MEDICAL CENTRE","S8 0YH",24,13642,53.358255,-1.476411
"C88027","UPWELL STREET SURGERY","S4 8AN",18,4782,53.406424,-1.434724
"C88028","BROOMHILL SURGERY","S10 5BU",20,9713,53.378235,-1.505583
"C88030","DUKE MEDICAL CENTRE","S2 2TD",10,7846,53.378602,-1.455641
"C88031","UPPERTHORPE MEDICAL CENTRE","S6 3FT",22,12647,53.389895,-1.486849
"C88032","CHARNOCK HEALTH PRIMARY CARE CENTRE","S12 3GH",12,5630,53.342996,-1.420724
"C88034","NETHERGREEN SURGERY","S11 7EJ",15,9334,53.368136,-1.52662
"C88035","FIRTH PARK SURGERY","S5 6HH",16,9942,53.417569,-1.445921
"C88036","HANDSWORTH MEDICAL PRACTICE","S13 9BZ",11,10522,53.371708,-1.383405
"C88037","BASLOW RD, SHOREHAM ST & YORK RD SRGIES","S17 4DR",23,12578,53.316325,-1.531066
"C88038","THE MATHEWS PRACTICE BELGRAVE","S2 4UJ",12,7228,53.366594,-1.471815
"C88039","ECCLESFIELD GROUP PRACT","S35 9XQ",19,8589,53.444839,-1.465501
"C88040","OUGHTIBRIDGE SURGERY","S35 0FW",15,5799,53.435165,-1.543083
"C88041","WOODSEATS MEDICAL CENTRE","S8 0SH",23,11047,53.339926,-1.480299
"C88043","TRAMWAYS AND MIDDLEWOOD MEDICAL CENTRES","S6 1TT",23,10702,53.419002,-1.515194
"C88044","MANCHESTER ROAD SURGERY","S10 5PN",9,4934,53.380573,-1.521086
"C88045","DYKES HALL MEDICAL CENTRE","S6 4GQ",18,9242,53.40514,-1.506024
"C88046","BEAUCHIEF MEDICAL PRACTICE","S8 0BJ",11,7309,53.339102,-1.483117
"C88047","WINCOBANK MEDICAL CENTRE","S9 1DJ",14,7704,53.419405,-1.416316
"C88048","BURNGREAVE SURGERY","S3 9DA",10,7088,53.393309,-1.45983
"C88049","ELM LANE SURGERY","S5 7TW",9,5571,53.421627,-1.46069
"C88050","JAUNTY SPRINGS HEALTH CENTRE","S12 3DZ",14,3836,53.347684,-1.417896
"C88051","PAGE HALL MEDICAL CENTRE","S4 8GB",15,8069,53.40731,-1.447348
"C88052","HOLLIES MEDICAL CENTRE","S11 9AL",19,10174,53.363188,-1.494818
"C88053","FALKLAND HOUSE SURGERY","S11 7PL",5,4046,53.359728,-1.514423
"C88054","GRENOSIDE SURGERY","S35 8NX",14,7914,53.438313,-1.496578
"C88059","HAROLD STREET MEDICAL CENTRE","S6 3QW",4,2623,53.393121,-1.492871
"C88060","SHARROW LANE MEDICAL CENTRE","S11 8AN",2,4200,53.367116,-1.482298
"C88062","RUSTLINGS ROAD MEDICAL CENTRE","S11 7AB",8,4820,53.367743,-1.511627
"C88069","CLOVER GROUP PRACTICE","S9 4QH",41,14927,53.384852,-1.408849
"C88070","SHIREGREEN MEDICAL CENTRE","S5 0RG",17,7591,53.430083,-1.440596
"C88072","WOODHOUSE MEDICAL CENTRE","S13 7LY",18,12023,53.357653,-1.372039
"C88073","HEELEY GREEN SURGERY","S2 3AJ",14,5823,53.358494,-1.461517
"C88074","DEEPCAR MEDICAL CENTRE","S36 2RA",13,5241,53.480193,-1.57834
"C88076","DEVONSHIRE GREEN MEDICAL CENTRE","S3 7SF",14,7576,53.379509,-1.477593
"C88077","GREEN CROSS GROUP PRACTICE","S5 8GS",11,7555,53.421719,-1.487866
"C88078","MOSBOROUGH HEALTH CENTRE","S20 5BQ",15,6921,53.325238,-1.364873
"C88079","CROOKES PRACTICE","S10 1GN",16,8478,53.383668,-1.502228
"C88082","CARRFIELD MEDICAL CENTRE","S8 9SG",12,1191,53.358636,-1.465061
"C88083","SELBORNE ROAD MEDICAL CENTRE","S10 5ND",6,2598,53.378856,-1.518955
"C88084","CLOVER NORTH DARNALL HEALTH CENTRE","S9 5DH",6,3117,53.388203,-1.410397
"C88085","RICHMOND MEDICAL CENTRE","S13 8NA",15,9392,53.360958,-1.408504
"C88086","SOUTHEY GREEN MEDICAL CTR","S5 7QB",5,2803,53.419051,-1.477666
"C88087","DOVERCOURT GROUP PRACTICE","S2 5FX",24,8966,53.374952,-1.441799
"C88088","EAST BANK MEDICAL CENTRE","S2 2AG",13,6313,53.358385,-1.439581
"C88090","MANOR AND PARK GROUP PRACTICE","S2 1QU",15,8333,53.373705,-1.42716
"C88091","BARNSLEY ROAD SURGERY","S5 0QJ",5,2409,53.425089,-1.45693
"C88092","VALLEY MEDICAL CENTRE","S36 1BX",19,9619,53.482334,-1.594911
"C88095","MILL ROAD SURGERY","S35 9XQ",17,5387,53.444839,-1.465501
"C88096","HACKENTHORPE MEDICAL CENTRE","S12 4LA",11,6695,53.345557,-1.37435
"C88622","SHEFFIELD MEDICAL CENTRE","S3 9LB",3,2245,53.390867,-1.460492
"C88627","UNIVERSITY HEALTH SERVICE HEALTH CENTRE","S3 7QP",31,41027,53.380323,-1.482709
"C88631","VERITAS HEALTH CENTRE","S8 0RT",1,1451,53.354257,-1.481026
"C88647","THE THORPE PRACTICE","S20 6PD",14,4295,53.33818,-1.37647
"C88648","CRYSTAL PEAKS MEDICAL CENTRE","S20 7HZ",19,6683,53.342917,-1.354427
"C88652","GREYSTONES MEDICAL CENTRE","S11 7BJ",7,3733,53.363853,-1.510002
"C88655","THE MEDICAL CENTRE DR OKORIE","S9 1WZ",1,1136,53.411077,-1.397219
"C88656","STANNINGTON MEDICAL CENTRE","S6 6BX",3,3336,53.393247,-1.546538
"Y05349","CLOVER CITY PRACTICE","S1 2PJ",12,5148,53.38196,-1.466618
"B81036","POCKLINGTON GROUP PRACTICE","YO42 2BS",26,17979,53.92375,-0.780688
"B82002","MILLFIELD SURGERY","YO61 3JR",15,7358,54.125406,-1.192496
"B82005","PRIORY MEDICAL GROUP","YO24 3WX",84,58030,53.949333,-1.129246
"B82018","ESCRICK SURGERY","YO19 6LE",10,6209,53.880087,-1.046135
"B82021","DALTON TERRACE SURGERY","YO24 4DB",19,8851,53.952258,-1.096902
"B82026","HAXBY GROUP PRACTICE","YO32 2LL",62,33202,54.019338,-1.081921
"B82031","SHERBURN GROUP PRACTICE","LS25 6ED",12,10550,53.798594,-1.253519
"B82033","PICKERING MEDICAL PRACTICE","YO18 8BL",19,10773,54.244956,-0.781447
"B82041","BEECH TREE SURGERY","YO8 9AJ",20,16275,53.77494,-1.08053
"B82047","UNITY HEALTH","YO10 5LA",19,22228,53.950377,-1.029723
"B82064","TOLLERTON SURGERY","YO61 1AG",5,3417,54.071608,-1.223241
"B82068","HELMSLEY SURGERY","YO62 5HD",7,3558,54.249239,-1.056418
"B82071","THE OLD SCHOOL MEDICAL PRACTICE","YO23 3UA",13,7505,53.916163,-1.142404
"B82073","SOUTH MILFORD SURGERY","LS25 5AA",14,10327,53.779296,-1.249176
"B82074","POSTERNGATE SURGERY","YO8 4QH",24,18025,53.780904,-1.068173
"B82077","KIRKBYMOORSIDE SURGERY","YO62 6AR",11,5991,54.269403,-0.933976
"B82079","STILLINGTON SURGERY","YO61 1LL",8,3565,54.103615,-1.108927
"B82080","MY HEALTH GROUP","YO32 5UA",27,19358,54.038966,-1.034657
"B82081","ELVINGTON MEDICAL PRACTICE","YO41 4DY",16,7243,53.924997,-0.94883
"B82083","YORK MEDICAL GROUP","YO24 4HD",49,44296,53.955921,-1.119408
"B82097","SCOTT ROAD MEDICAL CENTRE","YO8 4BL",15,10997,53.785036,-1.074821
"B82098","JORVIK GILLYGATE PRACTICE","YO1 7NP",28,24544,53.959151,-1.077864
"B82100","FRONT STREET SURGERY","YO24 3BZ",17,7964,53.954403,-1.126923
"B82105","TADCASTER MEDICAL CENTRE","LS24 8HD",13,9013,53.885494,-1.25824
"B82619","TERRINGTON SURGERY","YO60 6PS",6,1474,54.128925,-0.973697
"B87001","MIDDLESTOWN","WF4 4PA",16,9056,53.650545,-1.600562
"B87002","ORCHARD CROFT","WF4 5BY",12,11170,53.660001,-1.54984
"B87003","COLLEGE LANE SURGERY","WF7 7HZ",26,10309,53.644573,-1.336292
"B87004","WARRENGATE MEDICAL CENTRE","WF1 4PR",14,10770,53.68262,-1.490796
"B87005","RIVERSIDE MEDICAL CENTRE","WF10 1PH",18,11438,53.727986,-1.358018
"B87006","PARK GREEN SURGERY","WF9 3AP",13,10921,53.589945,-1.309879
"B87007","NORTHGATE SURGERY","WF8 1NF",19,12926,53.693965,-1.309437
"B87008","LUPSET HEALTH CENTRE","WF2 8FE",21,14031,53.672412,-1.524006
"B87009","ST THOMAS ROAD SURGERY","WF7 5HE",11,6365,53.67489,-1.355934
"B87011","FRIARWOOD SURGERY","WF8 1SU",25,13554,53.688271,-1.307201
"B87012","MAYBUSH MEDICAL CENTRE","WF1 5PN",14,9278,53.670273,-1.489249
"B87013","OUTWOOD PARK MEDICAL CENTRE","WF1 2PE",15,13442,53.710943,-1.512284
"B87015","STUART ROAD","WF8 4PQ",10,8530,53.69345,-1.315279
"B87016","WHITE ROSE SURGERY","WF9 2RD",21,23350,53.595432,-1.293668
"B87017","TRINITY MEDICAL CENTRE","WF1 1PG",29,24851,53.679942,-1.494838
"B87018","HENRY MOORE CLINIC","WF10 4EN",13,10937,53.720794,-1.354494
"B87019","STANLEY","WF3 4HS",11,7171,53.713836,-1.475902
"B87020","CHAPELTHORPE","WF2 7GP",20,13616,53.644775,-1.506727
"B87021","ASH GROVE","WF11 0JA",14,12119,53.704986,-1.245575
"B87022","HOMESTEAD","WF2 9PE",10,8337,53.68227,-1.518747
"B87025","CASTLEFORD MEDICAL PRACTICE","WF10 1DP",10,7177,53.724343,-1.35588
"B87026","THE GRANGE MEDICAL CENTRE","WF9 4DP",19,14612,53.611836,-1.354248
"B87027","NEW SOUTHGATE SURGERY","WF1 3JQ",18,14219,53.692762,-1.50415
"B87028","CROFTON AND SHARLSTON MED PRAC","WF4 1HJ",17,10782,53.656573,-1.427042
"B87030","HEALTH CARE FIRST PARTNERSHIP","LS26 9AA",25,27725,53.73679,-1.393589
"B87031","OSSETT SURGERY","WF5 8DF",25,21418,53.681484,-1.583119
"B87032","STATION LANE","WF7 6JL",10,7723,53.681142,-1.35864
"B87033","NEWLAND SURGERY","WF6 1QD",7,4052,53.695146,-1.424247
"B87036","LANGTHWAITE SURGERY","WF9 3AP",10,4269,53.589945,-1.309879
"B87039","KING'S MEDICAL PRACTICE","WF6 2AZ",17,15667,53.700643,-1.419613
"B87041","PARK VIEW SURGERY","WF6 2BU",18,2159,53.698126,-1.421665
"B87042","TIEVE TARA","WF10 2QP",13,5441,53.732581,-1.314625
"B87044","ALVERTHORPE","WF2 0DP",3,2688,53.685476,-1.518486
"B87600","QUEEN STREET SURGERY","WF6 2BU",11,2328,53.698126,-1.421665
"B87602","PATIENCE LANE SURGERY","WF6 2JZ",3,2697,53.703802,-1.433687
"B87604","EASTMOOR HEALTH CENTRE","WF1 4SD",6,2629,53.690004,-1.476864
"C82001","SOUTH LEICESTERSHIRE MEDICAL PARTNERSHIP","LE8 0LG",21,25140,52.535941,-0.997348
"C82002","COUNTESTHORPE HEALTH CENTRE","LE8 5QJ",18,10897,52.554536,-1.136767
"C82009","MARKET HARBOROUGH MED.CTR","LE16 9BX",33,26782,52.477084,-0.924843
"C82010","OAKHAM MEDICAL PRACTICE","LE15 6NT",26,15551,52.670802,-0.737539
"C82013","BUSHLOE SURGERY","LE18 2EW",22,11316,52.583283,-1.116921
"C82016","LONG CLAWSON MEDICAL PRACTICE","LE14 4PA",14,7114,52.839215,-0.923909
"C82021","THE CENTRAL SURGERY","LE2 5AA",16,8925,52.598976,-1.082204
"C82022","THE BILLESDON SURGERY","LE7 9AJ",14,7301,52.618174,-0.93947
"C82025","THE WYCLIFFE MEDICAL PRACTICE","LE17 4EB",16,10864,52.457324,-1.198016
"C82038","LATHAM HOUSE MEDICAL PRACTICE","LE13 1NX",50,35893,52.765348,-0.883388
"C82039","KINGSWAY SURGERY","LE3 2JN",18,10217,52.606079,-1.176416
"C82042","THE COUNTY PRACTICE","LE7 2EQ",13,12650,52.700986,-1.069331
"C82044","EMPINGHAM MEDICAL CENTRE","LE15 8PR",15,8934,52.667718,-0.593784
"C82048","ROSEMEAD DRIVE SURGERY","LE2 5PP",10,4828,52.5934,-1.083088
"C82055","THE LIMES MEDICAL CENTRE","LE19 2DU",11,14526,52.573966,-1.199992
"C82056","THE GLENFIELD SURGERY","LE3 8GS",17,14243,52.655293,-1.196537
"C82066","FOREST HOUSE MEDICAL CTR","LE3 3FN",14,15397,52.625254,-1.201392
"C82067","THE CROFT MEDICAL CENTRE","LE2 4PE",12,8881,52.5939,-1.068661
"C82068","NORTHFIELD MEDICAL CENTRE","LE8 4NS",14,11903,52.57675,-1.164378
"C82071","WIGSTON CENTRAL SURGERY","LE18 2EW",12,12523,52.583283,-1.116921
"C82077","THE UPPINGHAM SURGERY","LE15 9EG",14,12136,52.594891,-0.723545
"C82078","THE JUBILEE MEDICAL PRACTICE","LE7 2EQ",16,12345,52.700986,-1.069331
"C82079","SOUTH WIGSTON HEALTH CTR.","LE18 4SE",21,7683,52.58047,-1.129174
"C82098","HAZELMERE MEDICAL CENTRE","LE8 4DN",11,7552,52.573751,-1.163659
"C82109","HUSBANDS BOSWORTH MEDICAL CENTRE","LE17 6PU",25,4405,52.449578,-1.05621
"C82112","SEVERN SURGERY","LE2 4NW",16,7106,52.598801,-1.065583
"C82611","THE MASHARANI PRACTICE","LE17 4EB",11,6381,52.457324,-1.198016
"C82631","ENDERBY MEDICAL CENTRE","LE19 4LY",10,6986,52.587061,-1.211488
"C82649","MARKET OVERTON & SOMERBY SURGERIES","LE15 7PP",22,4906,52.739345,-0.684769
"Y03584","LLR SAS PROVIDER","LE19 2DU",4,44,52.573966,-1.199992
"Y05412","SOUTH WIGSTON ASYLUM SERVICE","LE1 2BG",2,53,52.63753,-1.12559
"C82005","GROBY ROAD MEDICAL CENTRE (ID PATCHETT)","LE3 9ED",15,10088,52.644337,-1.150491
"C82008","OAKMEADOW SURGERY (GJ INGRAMS)","LE3 8NF",11,8792,52.639984,-1.196705
"C82018","MANOR PARK MEDICAL PRACTICE","LE4 0JF",11,14484,52.656267,-1.143067
"C82019","STURDEE ROAD HEALTH AND WELLBEING CENTRE","LE2 9DB",6,5536,52.590454,-1.143413
"C82020","DE MONTFORT SURGERY","LE2 7HX",28,18356,52.6286,-1.141192
"C82024","SPINNEY HILL MEDICAL CENTRE","LE5 3HX",16,21271,52.637381,-1.109212
"C82029","WILLOWBROOK MEDICAL CENTRE (JG ASTLES)","LE5 2NL",8,11558,52.637548,-1.048495
"C82030","DOWNING DRIVE SURGERY (AJJ BENTLEY)","LE5 6LP",14,6826,52.625294,-1.063173
"C82031","JOHNSON MEDICAL PRACTICE","LE5 1BL",13,14242,52.652414,-1.067345
"C82033","HUMBERSTONE MEDICAL CENTRE (IP JONES)","LE5 0PR",12,11368,52.645126,-1.089641
"C82037","EAST PARK MEDICAL CENTRE (RP PANDYA)","LE5 5FD",8,10352,52.63365,-1.104374
"C82046","SAFFRON GROUP PRACTICE","LE2 6UL",29,17118,52.60128,-1.141224
"C82053","HOCKLEY FARM MED PRACT (A NANA)","LE3 1HN",20,10913,52.630898,-1.183899
"C82059","WESTCOTES GP SURGERY (ONE)","LE3 0QR",2,1639,52.628609,-1.15115
"C82060","THE PRACTICE-SAYEED","LE5 5AY",11,4325,52.630817,-1.106589
"C82063","EAST LEICESTER MED PRACT(S LONGWORTH)","LE5 4BP",24,12313,52.64202,-1.094937
"C82073","MERRIDALE MEDICAL CENTRE (RP TEW)","LE3 1BL",15,14387,52.619845,-1.160182
"C82080","SHEFA MEDICAL PRACTICE","LE2 0TA",5,4826,52.631081,-1.119069
"C82084","DR B MODI","LE4 6NL",4,3539,52.651579,-1.113181
"C82086","FOSSE MEDICAL CENTRE (DR H MUKADAM)","LE3 5RR",15,9421,52.636707,-1.152153
"C82088","HORIZON HEALTHCARE","LE5 5UB",7,9114,52.622375,-1.101812
"C82092","AYLESTONE HEALTH CENTRE","LE2 8SF",7,3775,52.605694,-1.152464
"C82094","BEAUMONT LODGE MEDICAL PRACTICE","LE4 0QR",5,6867,52.658279,-1.160488
"C82099","AL-WAQAS MEDICAL CENTRE","LE2 1DJ",9,4376,52.62905,-1.108339
"C82100","THE HEDGES MEDICAL CENTRE (SA BAILEY)","LE2 9BU",13,6018,52.591287,-1.146741
"C82105","AR-RAZI MEDICAL CENTRE","LE5 5PQ",1,3109,52.623926,-1.101204
"C82107","COSSINGTON PARK SURGERY","LE4 6AW",18,8145,52.648059,-1.122113
"C82114","DR U K ROY","LE3 0QD",4,2551,52.630574,-1.153143
"C82116","HIGHFIELDS SURGERY (R WADHWA)","LE2 0NN",5,4049,52.629415,-1.1186
"C82119","NARBOROUGH ROAD SURGERY","LE3 0PE",4,2610,52.624383,-1.153521
"C82122","CLARENDON PARK ROAD HEALTH CENTRE","LE2 3AG",8,5546,52.614216,-1.122738
"C82124","VICTORIA PARK HEALTH CENTRE","LE2 1XD",31,22910,52.619117,-1.11925
"C82610","THE PARKS MEDICAL CENTRE (B HAINSWORTH)","LE3 9PW",4,6227,52.646665,-1.177125
"C82614","SPIRIT PRIMARY CARE LIMITED-ASQUITH","LE2 6FQ",14,4262,52.601489,-1.117116
"C82620","DR S SHAFI","LE3 0AA",2,1883,52.628168,-1.148529
"C82623","HEATHERBROOK SURGERY (RP ARCHER)","LE4 1EF",3,3583,52.675577,-1.161777
"C82624","SPIRIT PRIMARY CARE LTD-BEAUMONT LEYS","LE4 0UZ",9,7627,52.662296,-1.15392
"C82626","PASLEY ROAD HEALTH CENTRE (TK KHONG)","LE2 9BU",6,2305,52.591287,-1.146741
"C82639","WESTEND MEDICAL PRACTICE","LE3 0LP",7,11146,52.631332,-1.153587
"C82642","HIGHFIELDS MEDICAL CENTRE","LE5 3GH",8,9829,52.641154,-1.108788
"C82643","COMMUNITY HEALTH CENTRE (ZS OSAMA)","LE2 0GU",11,13510,52.632387,-1.113421
"C82651","BROADHURST ST MED PRACT (KS MORJARIA)","LE4 6NF",3,4002,52.653472,-1.118671
"C82653","WESTCOTES GP SURGERY (TWO)","LE3 0QR",2,1702,52.628609,-1.15115
"C82659","DR R KAPUR & PARTNERS","LE2 0TA",3,2792,52.631081,-1.119069
"C82660","ST PETER'S MED CENTRE (MANSINGH & MEHRA)","LE2 0TA",4,6423,52.631081,-1.119069
"C82662","WALNUT ST MED CTR","LE2 7LE",4,6236,52.624645,-1.138787
"C82667","THE CHARNWOOD PRACTICE","LE5 3GH",13,7798,52.641154,-1.108788
"C82669","THE SURGERY @ AYLESTONE","LE2 8PR",4,4194,52.602618,-1.154819
"C82670","INCLUSION HEALTHCARE","LE1 4SX",11,887,52.637338,-1.136115
"C82671","BRANDON SURGERY DR R KAPUR & PARTNER","LE4 6AW",2,6259,52.648059,-1.122113
"C82676","ST ELIZABETH'S MEDICAL CENTRE (JA WOOD)","LE5 1DR",3,5937,52.648257,-1.061189
"C82680","SPIRIT PRIMARY CARE LTD-RUSHEY MEAD","LE4 7ZX",17,4679,52.663187,-1.103823
"Y00137","WILLOWS HEALTH","LE5 4LJ",25,6224,52.636205,-1.089264
"Y00344","LEICESTER CITY ASSIST PRACTICE","LE1 4SX",8,1506,52.637338,-1.136115
"Y02469","HERON GP PRACTICE","LE5 3GH",5,9801,52.641154,-1.108788
"Y02686","BOWLING GREEN STREET SURGERY","LE1 6AS",6,5367,52.633073,-1.133185
"Y03587","WESTCOTES MEDICAL CENTRE","LE3 0LP",14,7,52.631332,-1.153587
"C82003","GREENGATE MEDICAL CENTRE","LE4 3JF",14,11575,52.680551,-1.12854
"C82007","CASTLE DONINGTON SURGERY","DE74 2LB",14,10008,52.842673,-1.337386
"C82011","PINFOLD MEDICAL PRACTICE","LE11 1DQ",16,11878,52.771542,-1.203159
"C82012","IBSTOCK & BARLESTONE SURGERIES","LE67 6JP",19,11388,52.684869,-1.401818
"C82014","CASTLE MEDICAL GROUP","LE65 2LP",19,17541,52.749369,-1.48192
"C82017","MEASHAM MEDICAL UNIT","DE12 7HR",20,15163,52.704911,-1.508526
"C82026","BRIDGE STREET MEDICAL PRACTICE","LE11 1NQ",14,8326,52.774841,-1.20716
"C82027","THE OLD SCHOOL SURGERY","LE9 4LJ",10,7846,52.547203,-1.282771
"C82028","MARKFIELD MEDICAL CENTRE","LE67 9WU",12,7157,52.685255,-1.272985
"C82032","THE ANSTEY SURGERY","LE7 7AZ",12,7602,52.672778,-1.18718
"C82034","QUORN MEDICAL CENTRE","LE12 8BP",16,9251,52.745598,-1.165552
"C82035","PARK VIEW SURGERY","LE11 2AG",11,7633,52.769041,-1.201892
"C82041","CHARNWOOD MEDICAL GROUP","LE11 5DX",27,12470,52.774303,-1.22117
"C82043","STATION VIEW HEALTH CENTRE","LE10 1UA",18,11962,52.537249,-1.364332
"C82045","THE SURGERY","LE67 3FA",7,7298,52.726986,-1.367146
"C82047","MAPLES FAMILY MED.PRACT.","LE10 1DS",9,10405,52.541052,-1.367743
"C82050","LONG LANE SURGERY","LE67 4DR",20,13888,52.721883,-1.357685
"C82051","NEWBOLD VERDON MED.PRACT.","LE9 9PZ",16,11346,52.634612,-1.34334
"C82052","DR AM LEWIS' PRACTICE","LE67 5HX",5,3954,52.742576,-1.360679
"C82054","THE BURBAGE SURGERY","LE10 2SE",11,11569,52.530096,-1.361645
"C82061","BARWELL & HOLLYCROFT MEDICAL CENTRES","LE9 8HR",18,14039,52.567264,-1.349008
"C82062","BARROW HEALTH CENTRE","LE12 8PY",13,8581,52.751623,-1.149088
"C82064","FOREST HOUSE SURGERY","LE12 9DF",12,11932,52.766681,-1.287289
"C82070","WOODBROOK MEDICAL CENTRE","LE11 1NH",14,9858,52.774708,-1.20743
"C82072","BROOM LEYS SURGERY","LE67 4DE",11,8025,52.722883,-1.349847
"C82075","CASTLE MEAD MEDICAL CENTRE","LE10 1DS",10,10503,52.541052,-1.367743
"C82082","THE CENTRE SURGERY","LE10 1DS",12,5280,52.541052,-1.367743
"C82091","BIRSTALL MEDICAL CENTRE","LE4 4EE",8,8547,52.676539,-1.116107
"C82093","THE ORCHARD MED PRACTICE","LE9 6RG",11,12110,52.533972,-1.231693
"C82095","ALPINE HOUSE SURGERY","LE12 7JU",11,9414,52.724845,-1.139585
"C82096","HUGGLESCOTE SURGERY","LE67 2BS",15,8822,52.71103,-1.365684
"C82097","CHARNWOOD SURGERY","LE12 7DJ",6,1917,52.721778,-1.135877
"C82102","MANOR HOUSE SURGERY","LE12 9UJ",6,4679,52.785447,-1.340835
"C82103","DISHLEY GRANGE MEDICAL PRACTICE","LE11 4RZ",11,7759,52.779192,-1.240459
"C82111","CAMPUS VIEW MEDICAL CENTRE","LE11 3TU",16,18355,52.764828,-1.22952
"C82120","WHITWICK HEALTH CENTRE","LE67 5HX",4,3579,52.742576,-1.360679
"C82121","HEATH LANE SURGERY","LE9 7PB",13,14605,52.575227,-1.322924
"C82600","THE BANKS SURGERY","LE12 7RD",4,5838,52.731019,-1.105439
"C82627","SILVERDALE MEDICAL CENTRE","LE4 8NN",7,6187,52.672319,-1.090511
"C82628","GROBY SURGERY","LE6 0GL",9,3609,52.661865,-1.225017
"C82634","RATBY MEDICAL CENTRE","LE6 0JP",8,4349,52.643968,-1.237697
"C82644","DR MK LAKHANI'S PRACTICE","LE12 7UD",3,4514,52.732012,-1.101213
"C82650","DESFORD MEDICAL CENTRE","LE9 9GR",6,4887,52.627473,-1.296116
"C82656","FIELD STREET SURGERY","LE12 9AL",2,2589,52.771768,-1.291408
"C82678","THURMASTON HEALTH CENTRE","LE4 8EA",8,6706,52.672383,-1.103738
"Y00252","DR SJC CLAY'S PRACTICE","LE12 8RY",2,3179,52.72642,-1.216618
"M83001","HORSEFAIR PRACTICE","WS15 2FH",15,12015,52.767064,-1.947546
"M83016","HIGH STREET SURGERY","WS6 7AB",6,7234,52.660751,-2.031812
"M83033","HEDNESFORD MEDICAL PRACTICE","WS12 4DH",9,6285,52.71233,-2.000697
"M83048","THE NILE PRACTICE","WS6 7AE",7,9884,52.660156,-2.036941
"M83063","NORTON CANES HEALTH CENTRE","WS11 9SE",7,3557,52.673977,-1.970246
"M83107","ALDERWOOD MEDICAL PRACTICE","WS11 1QN",9,6541,52.683673,-2.040444
"M83109","DR MANICKAM & PARTNER","WS12 4DJ",5,3370,52.71073,-2.001763
"M83129","HEATH HAYES HEALTH CENTRE","WS12 3TG",11,10797,52.69062,-1.988284
"M83130","RED LION SURGERY","WS11 5XY",3,3845,52.693241,-2.030614
"M83139","MOSS STREET SURGERY","WS11 6DE",7,4821,52.702675,-2.012892
"M83608","QUINTON PRACTICE","WS6 6EW",7,5136,52.657123,-2.01749
"M83616","DR I RASIB & PARTNERS","WS11 5XY",5,5368,52.693241,-2.030614
"M83637","CHADSMOOR MEDICAL PRACTICE","WS11 5JT",6,4000,52.708065,-2.023427
"M83638","THE COLLIERY PRACTICE","WS11 1DJ",20,14035,52.688613,-2.024782
"M83698","SOUTHFIELD WAY SURGERY","WS6 6JZ",2,3372,52.658391,-2.018733
"M83703","BRERETON SURGERY","WS15 1DU",5,4895,52.747482,-1.924317
"M83717","NORTON CANES SURGERY","WS11 9SE",1,3508,52.673977,-1.970246
"M83719","RAWNSLEY SURGERY","WS12 1JF",2,4399,52.708632,-1.970089
"M83727","NORTON CANES PRACTICE","WS11 9SE",4,3887,52.673977,-1.970246
"M83738","AELFGAR SURGERY","WS15 2AB",8,6079,52.763643,-1.937621
"Y02354","SANDY LANE SURGERY","WS15 2LB",11,10160,52.756389,-1.937617
"Y02594","ESSINGTON MEDICAL CENTRE","WV11 2RF",13,2764,52.63194,-2.056915
"C81018","DOVE RIVER","DE6 5HY",11,8779,52.886433,-1.761284
"M83010","GORDON STREET SURGERY","DE14 2JA",10,10534,52.810998,-1.644613
"M83013","YOXALL","DE13 8PD",11,4661,52.767984,-1.793174
"M83026","CARLTON STREET SURGERY","DE13 0TE",14,16230,52.821427,-1.647852
"M83027","TRENT MEADOWS","DE14 3EY",17,10669,52.786495,-1.673518
"M83035","ALREWAS","DE13 7AS",10,6441,52.733084,-1.745402
"M83037","TUTBURY HEALTH CENTRE","DE13 9NA",13,8156,52.858454,-1.686361
"M83042","BRIDGE SURGERY","DE15 9AW",15,9959,52.795149,-1.621335
"M83051","WETMORE ROAD SURGERY","DE14 1SL",17,11716,52.808047,-1.626064
"M83059","ABBOTS BROMLEY SURGERY","WS15 3BT",7,3944,52.819974,-1.880966
"M83065","BARTON","DE13 8LT",14,7171,52.761751,-1.725223
"M83073","STAPENHILL MEDICAL CENTRE","DE15 9QD",13,9514,52.785524,-1.624908
"M83074","BALANCE STREET","ST14 8JG",15,13986,52.897138,-1.863524
"M83641","MILL VIEW SURGERY","ST14 5JX",6,2105,52.950664,-1.837431
"M83680","NORTHGATE SURGERY","ST14 7FN",6,6329,52.899272,-1.866567
"M83681","ALL SAINTS SURGERY","DE14 3LS",5,9452,52.794382,-1.643586
"M83718","PEEL CROFT","DE14 3RH",3,3671,52.799342,-1.633905
"Y00078","WINSHILL","DE15 0EP",5,4352,52.805914,-1.595242
"M83005","HEATHCOTE STREET SURGERY","ST5 7EB",11,5097,53.043457,-2.250955
"M83007","THE VILLAGE SURGERY","ST5 0ET",8,7465,53.033918,-2.220032
"M83011","WERRINGTON VILLAGE SURGERY","ST9 0JS",10,8056,53.021659,-2.098023
"M83012","LEEK HEALTH CENTRE","ST13 6JB",12,8023,53.105691,-2.019347
"M83015","MADELEY PRACTICE","CW3 9NQ",9,7450,52.999856,-2.345126
"M83017","ASHLEY SURGERY","TF9 4LF",8,4438,52.925797,-2.355543
"M83023","KIDSGROVE MEDICAL CENTRE","ST7 4AY",12,9180,53.087366,-2.234085
"M83025","MILLER STREET SURGERY","ST5 1JD",12,6387,53.013803,-2.218424
"M83034","SILVERDALE MEDICAL CENTRE","ST5 6PS",17,12001,53.015627,-2.267264
